[{"id":"60200703","title":"Gallop Park Road GCB","address":"Gallop Park Road / Cluny Park / Botanical Gardens/ Gallop Road","price":51999999,"pricePretty":"S$ 51,999,999","listingType":"SALE","propertyType":"Good Class Bungalow","propertyTypeCode":"BUNG","beds":8,"baths":10,"sqft":15815.0,"lat":1.31994,"lng":103.81389,"url":"https://www.propertyguru.com.sg/listing/for-sale-gallop-park-road-gcb-60200703","image":null},{"id":"60223335","title":"Les Maisons Nassim","address":"14B Nassim Road","price":42000000,"pricePretty":"S$ 42,000,000","listingType":"SALE","propertyType":"Condominium","propertyTypeCode":"CONDO","beds":4,"baths":5,"sqft":6523.0,"lat":1.3092889718207514,"lng":103.82411153859083,"url":"https://www.propertyguru.com.sg/listing/for-sale-les-maisons-nassim-60223335","image":null},{"id":"22862568","title":"The Nassim","address":"18 Nassim Hill","price":29000000,"pricePretty":"S$ 29,000,000","listingType":"SALE","propertyType":"Condominium","propertyTypeCode":"CONDO","beds":5,"baths":8,"sqft":7061.0,"lat":1.3063366,"lng":103.822531,"url":"https://www.propertyguru.com.sg/listing/for-sale-the-nassim-22862568","image":null},{"id":"20488894","title":"Sentosa Cove","address":"Ocean Drive","price":28000000,"pricePretty":"S$ 28,000,000","listingType":"SALE","propertyType":"Detached House","propertyTypeCode":"DETAC","beds":4,"baths":6,"sqft":10100.0,"lat":1.2484887,"lng":103.8434116,"url":"https://www.propertyguru.com.sg/listing/for-sale-sentosa-cove-20488894","image":null},{"id":"25596113","title":"Oxley Road","address":"Oxley Road","price":26000000,"pricePretty":"S$ 26,000,000","listingType":"SALE","propertyType":"Detached House","propertyTypeCode":"DETAC","beds":7,"baths":7,"sqft":4335.0,"lat":1.29717,"lng":103.840877,"url":"https://www.propertyguru.com.sg/listing/for-sale-oxley-road-25596113","image":null},{"id":"60222114","title":"King Albert Park","address":"","price":25700000,"pricePretty":"S$ 25,700,000","listingType":"SALE","propertyType":"Good Class Bungalow","propertyTypeCode":"BUNG","beds":4,"baths":4,"sqft":14500.0,"lat":1.3351,"lng":103.78185,"url":"https://www.propertyguru.com.sg/listing/for-sale-king-albert-park-60222114","image":null},{"id":"500006366","title":"Mount Sinai Brand New 2.5 Storey + Basement Detached TOP soon!!","address":"Mount Sinai Road","price":19800000,"pricePretty":"S$ 19,800,000","listingType":"SALE","propertyType":"Detached House","propertyTypeCode":"DETAC","beds":6,"baths":7,"sqft":5321.0,"lat":1.3166,"lng":103.78549,"url":"https://www.propertyguru.com.sg/listing/for-sale-mount-sinai-brand-new-2-5-storey-basement-detached-top-soon-500006366","image":null},{"id":"25186555","title":"Stunning Detached House For Sale-Renovated-Move-in condition.","address":"Wilkinson/Branksome/Bournemouth","price":19800000,"pricePretty":"S$ 19,800,000","listingType":"SALE","propertyType":"Detached House","propertyTypeCode":"DETAC","beds":5,"baths":7,"sqft":6800.0,"lat":1.303436,"lng":103.895849,"url":"https://www.propertyguru.com.sg/listing/for-sale-stunning-detached-house-for-sale-renovated-move-in-condition-25186555","image":null},{"id":"60179771","title":"Hua Guan Avenue","address":"Hua Guan/Stone Ave/Bee San Ave","price":18800000,"pricePretty":"S$ 18,800,000","listingType":"SALE","propertyType":"Detached House","propertyTypeCode":"DETAC","beds":7,"baths":8,"sqft":4565.0,"lat":1.33816,"lng":103.7891,"url":"https://www.propertyguru.com.sg/listing/for-sale-hua-guan-avenue-60179771","image":null},{"id":"24186092","title":"St. Regis Residences Singapore","address":"31 Tanglin Road","price":16888888,"pricePretty":"S$ 16,888,888","listingType":"SALE","propertyType":"Apartment","propertyTypeCode":"APT","beds":4,"baths":5,"sqft":4941.0,"lat":1.305987,"lng":103.826085,"url":"https://www.propertyguru.com.sg/listing/for-sale-st-regis-residences-singapore-24186092","image":null},{"id":"60136319","title":"Sentosa Cove","address":"Ocean Drive","price":16800000,"pricePretty":"S$ 16,800,000","listingType":"SALE","propertyType":"Bungalow House","propertyTypeCode":"LBUNG","beds":5,"baths":6,"sqft":7894.0,"lat":1.25034,"lng":103.84562,"url":"https://www.propertyguru.com.sg/listing/for-sale-sentosa-cove-60136319","image":null},{"id":"24644850","title":"Sentosa Cove","address":"Cove Drive","price":15800000,"pricePretty":"S$ 15,800,000","listingType":"SALE","propertyType":"Bungalow House","propertyTypeCode":"LBUNG","beds":5,"baths":6,"sqft":7835.0,"lat":1.2484887,"lng":103.8434116,"url":"https://www.propertyguru.com.sg/listing/for-sale-sentosa-cove-24644850","image":null},{"id":"25517943","title":"Freehold Sunset Way Detached Corner Face Park","address":"Sunset Clementi Road Cross Island MRT","price":15000000,"pricePretty":"S$ 15,000,000","listingType":"SALE","propertyType":"Bungalow House","propertyTypeCode":"LBUNG","beds":5,"baths":4,"sqft":8139.0,"lat":1.32897,"lng":103.76834,"url":"https://www.propertyguru.com.sg/listing/for-sale-freehold-sunset-way-detached-corner-face-park-25517943","image":null},{"id":"500033371","title":"Sage","address":"11A Nassim Road","price":15000000,"pricePretty":"S$ 15,000,000","listingType":"SALE","propertyType":"Condominium","propertyTypeCode":"CONDO","beds":4,"baths":5,"sqft":4682.0,"lat":1.30777,"lng":103.82423,"url":"https://www.propertyguru.com.sg/listing/for-sale-sage-500033371","image":null},{"id":"60203743","title":"A Rare Gem: Elevated Bungalow Facing Expansive Park Vista","address":"Ulu Pandan/Dunearn/Clementi","price":15000000,"pricePretty":"S$ 15,000,000","listingType":"SALE","propertyType":"Detached House","propertyTypeCode":"DETAC","beds":6,"baths":5,"sqft":8145.0,"lat":1.32415,"lng":103.7728,"url":"https://www.propertyguru.com.sg/listing/for-sale-a-rare-gem-elevated-bungalow-facing-expansive-park-vista-60203743","image":null},{"id":"60219938","title":"Trilight","address":"9 Newton Road","price":14800000,"pricePretty":"S$ 14,800,000","listingType":"SALE","propertyType":"Condominium","propertyTypeCode":"CONDO","beds":4,"baths":6,"sqft":5802.0,"lat":1.314273,"lng":103.839741,"url":"https://www.propertyguru.com.sg/listing/for-sale-trilight-60219938","image":null},{"id":"500017111","title":"Skyline @ Orchard Boulevard","address":"23 Angullia Park","price":14748803,"pricePretty":"S$ 14,748,803","listingType":"SALE","propertyType":"Condominium","propertyTypeCode":"CONDO","beds":3,"baths":3,"sqft":3100.0,"lat":1.30338,"lng":103.82993,"url":"https://www.propertyguru.com.sg/listing/for-sale-skyline-orchard-boulevard-500017111","image":null},{"id":"60194813","title":"Brand New & freehold with grandeur, 4 Levels with lift, beautiful swimming Pool & landscaping","address":"Walk to Stevens MRT, call 8130 3636 to view","price":14380000,"pricePretty":"S$ 14,380,000","listingType":"SALE","propertyType":"Semi-Detached House","propertyTypeCode":"SEMI","beds":5,"baths":6,"sqft":3087.0,"lat":1.31668,"lng":103.82703,"url":"https://www.propertyguru.com.sg/listing/for-sale-brand-new-freehold-with-grandeur-4-levels-with-lift-beautiful-swimming-pool-landscaping-60194813","image":null},{"id":"500057589","title":"Lynwood Grove Detached","address":"","price":13980000,"pricePretty":"S$ 13,980,000","listingType":"SALE","propertyType":"Detached House","propertyTypeCode":"DETAC","beds":6,"baths":7,"sqft":4725.0,"lat":1.34931,"lng":103.86369,"url":"https://www.propertyguru.com.sg/listing/for-sale-lynwood-grove-detached-500057589","image":null},{"id":"25371663","title":"Magnificent Views! Bukit Timah Bungalow ☎️ 8321.8433","address":"Hua Guan Avenue, Sian Tuan Avenue","price":13800000,"pricePretty":"S$ 13,800,000","listingType":"SALE","propertyType":"Detached House","propertyTypeCode":"DETAC","beds":5,"baths":7,"sqft":5200.0,"lat":1.3425339,"lng":103.786187,"url":"https://www.propertyguru.com.sg/listing/for-sale-magnificent-views-bukit-timah-bungalow-8321-8433-25371663","image":null},{"id":"25371684","title":"Splendid Views! Bungalow in Binjai Vicinity ☎️ 8321.8433","address":"Hua Guan Avenue, Sian Tuan Avenue","price":13800000,"pricePretty":"S$ 13,800,000","listingType":"SALE","propertyType":"Detached House","propertyTypeCode":"DETAC","beds":5,"baths":7,"sqft":5200.0,"lat":1.33948,"lng":103.7860649,"url":"https://www.propertyguru.com.sg/listing/for-sale-splendid-views-bungalow-in-binjai-vicinity-8321-8433-25371684","image":null},{"id":"60225554","title":"Toh Heights","address":"Toh Heights","price":13500000,"pricePretty":"S$ 13,500,000","listingType":"SALE","propertyType":"Bungalow House","propertyTypeCode":"LBUNG","beds":6,"baths":8,"sqft":9770.0,"lat":1.36561,"lng":103.9743,"url":"https://www.propertyguru.com.sg/listing/for-sale-toh-heights-60225554","image":null},{"id":"60166397","title":"Carmichael Road","address":"","price":13500000,"pricePretty":"S$ 13,500,000","listingType":"SALE","propertyType":"Detached House","propertyTypeCode":"DETAC","beds":6,"baths":3,"sqft":5966.0,"lat":1.34555,"lng":103.86627,"url":"https://www.propertyguru.com.sg/listing/for-sale-carmichael-road-60166397","image":null},{"id":"60184628","title":"Ardmore Park","address":"11 Ardmore Park","price":13480000,"pricePretty":"S$ 13,480,000","listingType":"SALE","propertyType":"Condominium","propertyTypeCode":"CONDO","beds":4,"baths":6,"sqft":2885.0,"lat":1.309615,"lng":103.82936,"url":"https://www.propertyguru.com.sg/listing/for-sale-ardmore-park-60184628","image":null},{"id":"500016522","title":"Brand New Freehold Semi-Detached With Pool Near Nanyang Primary School","address":"Coronation Road / Princess Of Wales / Duchess Ave","price":13200000,"pricePretty":"S$ 13,200,000","listingType":"SALE","propertyType":"Semi-Detached House","propertyTypeCode":"SEMI","beds":5,"baths":6,"sqft":2538.0,"lat":1.32502,"lng":103.81257,"url":"https://www.propertyguru.com.sg/listing/for-sale-brand-new-freehold-semi-detached-with-pool-near-nanyang-primary-school-500016522","image":null},{"id":"60085102","title":"Kembangan Newly Built Semi_D","address":"","price":12800000,"pricePretty":"S$ 12,800,000","listingType":"SALE","propertyType":"Semi-Detached House","propertyTypeCode":"SEMI","beds":6,"baths":6,"sqft":5306.0,"lat":1.32294,"lng":103.90898,"url":"https://www.propertyguru.com.sg/listing/for-sale-kembangan-newly-built-semi-d-60085102","image":null},{"id":"60189844","title":"Brand New and Luxury bungalow with Lift and swimming pool","address":"Braddell Heights Estate - call 8130 3636 to view","price":12700000,"pricePretty":"S$ 12,700,000","listingType":"SALE","propertyType":"Bungalow House","propertyTypeCode":"LBUNG","beds":7,"baths":8,"sqft":4359.0,"lat":1.35056,"lng":103.86528,"url":"https://www.propertyguru.com.sg/listing/for-sale-brand-new-and-luxury-bungalow-with-lift-and-swimming-pool-60189844","image":null},{"id":"60222438","title":"Brand New Sunset View Detached House","address":"Sunset View","price":11900000,"pricePretty":"S$ 11,900,000","listingType":"SALE","propertyType":"Detached House","propertyTypeCode":"DETAC","beds":5,"baths":6,"sqft":4527.0,"lat":1.32987,"lng":103.7718,"url":"https://www.propertyguru.com.sg/listing/for-sale-brand-new-sunset-view-detached-house-60222438","image":null},{"id":"500055963","title":"Cairnhill Heritage Home","address":"Cairnhill Road","price":11800000,"pricePretty":"S$ 11,800,000","listingType":"SALE","propertyType":"Terraced House","propertyTypeCode":"TERRA","beds":4,"baths":4,"sqft":2045.0,"lat":1.31027,"lng":103.83902,"url":"https://www.propertyguru.com.sg/listing/for-sale-cairnhill-heritage-home-500055963","image":null},{"id":"60109102","title":"GCB enclave Penthouse with an amazing view","address":"Nathan Road","price":11500000,"pricePretty":"S$ 11,500,000","listingType":"SALE","propertyType":"Condominium","propertyTypeCode":"CONDO","beds":4,"baths":5,"sqft":4811.0,"lat":1.295085,"lng":103.826903,"url":"https://www.propertyguru.com.sg/listing/for-sale-gcb-enclave-penthouse-with-an-amazing-view-60109102","image":null},{"id":"60030802","title":"W Residences Marina View - Singapore","address":"22 Marina View","price":11360000,"pricePretty":"S$ 11,360,000","listingType":"SALE","propertyType":"Condominium","propertyTypeCode":"CONDO","beds":5,"baths":6,"sqft":2809.0,"lat":1.2780676173868706,"lng":103.85110278038933,"url":"https://www.propertyguru.com.sg/listing/for-sale-w-residences-marina-view-singapore-60030802","image":null},{"id":"25132796","title":"Jade Mansion","address":"10 Leedon Road","price":11130000,"pricePretty":"S$ 11,130,000","listingType":"SALE","propertyType":"Condominium","propertyTypeCode":"CONDO","beds":6,"baths":6,"sqft":5300.0,"lat":1.313319,"lng":103.797433,"url":"https://www.propertyguru.com.sg/listing/for-sale-jade-mansion-25132796","image":null},{"id":"500031607","title":"⚡️1km MGS⚡️5 Ensuite Rooms ⚡️Renovated ⚡️12m Frontage (好房推荐) ❤️\n          <span\n            enable-mask=\"true\"\n            original-value=\"9*****\"\n            masked-value=\"9*****\"\n            masking-type=\"phone\"\n          >\n          </span>\n        )❤️","address":"Quiet Land Zone, 10m walk to MRT","price":11000000,"pricePretty":"S$ 11,000,000","listingType":"SALE","propertyType":"Detached House","propertyTypeCode":"DETAC","beds":5,"baths":6,"sqft":4720.0,"lat":1.34086,"lng":103.78732,"url":"https://www.propertyguru.com.sg/listing/for-sale-1km-mgs-5-ensuite-rooms-renovated-12m-frontage-%E5%A5%BD%E6%88%BF%E6%8E%A8%E8%8D%90-9222-0388-500031607","image":null},{"id":"500017946","title":"Detached House Lengkok Mariam","address":"Lengkok Mariam","price":10950000,"pricePretty":"S$ 10,950,000","listingType":"SALE","propertyType":"Detached House","propertyTypeCode":"DETAC","beds":10,"baths":8,"sqft":6264.0,"lat":1.36444,"lng":103.97223,"url":"https://www.propertyguru.com.sg/listing/for-sale-detached-house-lengkok-mariam-500017946","image":null},{"id":"25271547","title":"Emerald Hill Conservation Area","address":"Emerald Hill Road","price":10880000,"pricePretty":"S$ 10,880,000","listingType":"SALE","propertyType":"Conservation House","propertyTypeCode":"CON","beds":5,"baths":6,"sqft":1700.0,"lat":1.30705,"lng":103.84161,"url":"https://www.propertyguru.com.sg/listing/for-sale-emerald-hill-conservation-area-25271547","image":null},{"id":"25642714","title":"Seletar Hills Estate","address":"Seletar Hills Estate","price":10800000,"pricePretty":"S$ 10,800,000","listingType":"SALE","propertyType":"Detached House","propertyTypeCode":"DETAC","beds":7,"baths":7,"sqft":4422.0,"lat":1.3883,"lng":103.86839,"url":"https://www.propertyguru.com.sg/listing/for-sale-seletar-hills-estate-25642714","image":null},{"id":"60189454","title":"Beverly Hill","address":"61 Grange Road","price":10350000,"pricePretty":"S$ 10,350,000","listingType":"SALE","propertyType":"Condominium","propertyTypeCode":"CONDO","beds":4,"baths":5,"sqft":3778.0,"lat":1.298593,"lng":103.825426,"url":"https://www.propertyguru.com.sg/listing/for-sale-beverly-hill-60189454","image":null},{"id":"60190878","title":"Beverly Hill","address":"61 Grange Road","price":10350000,"pricePretty":"S$ 10,350,000","listingType":"SALE","propertyType":"Condominium","propertyTypeCode":"CONDO","beds":4,"baths":6,"sqft":3778.0,"lat":1.298593,"lng":103.825426,"url":"https://www.propertyguru.com.sg/listing/for-sale-beverly-hill-60190878","image":null},{"id":"500046350","title":"Sentosa Cove","address":"Cove Way","price":9888888,"pricePretty":"S$ 9,888,888","listingType":"SALE","propertyType":"Detached House","propertyTypeCode":"DETAC","beds":5,"baths":7,"sqft":7007.0,"lat":1.2484887,"lng":103.8434116,"url":"https://www.propertyguru.com.sg/listing/for-sale-sentosa-cove-500046350","image":null},{"id":"24312440","title":"Beaufort on Nassim","address":"12 Nassim Road","price":9888888,"pricePretty":"S$ 9,888,888","listingType":"SALE","propertyType":"Condominium","propertyTypeCode":"CONDO","beds":3,"baths":4,"sqft":3681.0,"lat":1.308815,"lng":103.824275,"url":"https://www.propertyguru.com.sg/listing/for-sale-beaufort-on-nassim-24312440","image":null},{"id":"60196743","title":"Nouvel 18","address":"18 Anderson Road","price":9000000,"pricePretty":"S$ 9,000,000","listingType":"SALE","propertyType":"Condominium","propertyTypeCode":"CONDO","beds":4,"baths":4,"sqft":2476.0,"lat":1.31151,"lng":103.827765,"url":"https://www.propertyguru.com.sg/listing/for-sale-nouvel-18-60196743","image":null},{"id":"60169068","title":"The Orchard Residences","address":"238 Orchard Boulevard","price":8970000,"pricePretty":"S$ 8,970,000","listingType":"SALE","propertyType":"Condominium","propertyTypeCode":"CONDO","beds":4,"baths":5,"sqft":2852.0,"lat":1.304356,"lng":103.831557,"url":"https://www.propertyguru.com.sg/listing/for-sale-the-orchard-residences-60169068","image":null},{"id":"60144742","title":"⭐FINEST⭐ Extensive Variety of Landed-Semi-D","address":"Sennett Road","price":8900000,"pricePretty":"S$ 8,900,000","listingType":"SALE","propertyType":"Semi-Detached House","propertyTypeCode":"SEMI","beds":8,"baths":6,"sqft":3950.0,"lat":1.32433,"lng":103.95998,"url":"https://www.propertyguru.com.sg/listing/for-sale-finest-extensive-variety-of-landed-semi-d-60144742","image":null},{"id":"25639108","title":"Bishan Brand New Semi-D TOP Soon ❤️ Rare! Walk to Bishan Mrt J8 & Within 1km Catholic High","address":"☆ Bishan Thomson","price":8880000,"pricePretty":"S$ 8,880,000","listingType":"SALE","propertyType":"Semi-Detached House","propertyTypeCode":"SEMI","beds":6,"baths":7,"sqft":2800.0,"lat":1.35462,"lng":103.8465,"url":"https://www.propertyguru.com.sg/listing/for-sale-bishan-brand-new-semi-d-top-soon-rare-walk-to-bishan-mrt-j8-within-1km-catholic-high-25639108","image":null},{"id":"60097769","title":"Seletar Hills Estate","address":"Seletar Hills Drive","price":8600000,"pricePretty":"S$ 8,600,000","listingType":"SALE","propertyType":"Semi-Detached House","propertyTypeCode":"SEMI","beds":7,"baths":6,"sqft":4003.0,"lat":1.38551,"lng":103.87234,"url":"https://www.propertyguru.com.sg/listing/for-sale-seletar-hills-estate-60097769","image":null},{"id":"24187752","title":"Goodwood Residence","address":"263 Bukit Timah Road","price":8500000,"pricePretty":"S$ 8,500,000","listingType":"SALE","propertyType":"Condominium","propertyTypeCode":"CONDO","beds":3,"baths":3,"sqft":4000.0,"lat":1.3142513,"lng":103.836042,"url":"https://www.propertyguru.com.sg/listing/for-sale-goodwood-residence-24187752","image":null},{"id":"24388493","title":"Klimt Cairnhill","address":"71 Cairnhill Road","price":8300000,"pricePretty":"S$ 8,300,000","listingType":"SALE","propertyType":"Condominium","propertyTypeCode":"CONDO","beds":4,"baths":4,"sqft":2056.0,"lat":1.309389267670262,"lng":103.83605432509555,"url":"https://www.propertyguru.com.sg/listing/for-sale-klimt-cairnhill-24388493","image":null},{"id":"60220905","title":"Newport Residences","address":"80 Anson Road","price":8280000,"pricePretty":"S$ 8,280,000","listingType":"SALE","propertyType":"Condominium","propertyTypeCode":"CONDO","beds":4,"baths":4,"sqft":2067.0,"lat":1.2734837855339078,"lng":103.8436136532537,"url":"https://www.propertyguru.com.sg/listing/for-sale-newport-residences-60220905","image":null},{"id":"25472440","title":"Orchard View","address":"29 Angullia Park","price":7999000,"pricePretty":"S$ 7,999,000","listingType":"SALE","propertyType":"Condominium","propertyTypeCode":"CONDO","beds":4,"baths":4,"sqft":2530.0,"lat":1.3027,"lng":103.82947,"url":"https://www.propertyguru.com.sg/listing/for-sale-orchard-view-25472440","image":null},{"id":"25213485","title":"Tembusu Grand","address":"","price":7888000,"pricePretty":"S$ 7,888,000","listingType":"SALE","propertyType":"Condominium","propertyTypeCode":"CONDO","beds":5,"baths":6,"sqft":2691.0,"lat":1.30553,"lng":103.89641,"url":"https://www.propertyguru.com.sg/listing/for-sale-tembusu-grand-25213485","image":null},{"id":"24904092","title":"Boulevard 88","address":"86 Orchard Boulevard","price":7800000,"pricePretty":"S$ 7,800,000","listingType":"SALE","propertyType":"Condominium","propertyTypeCode":"CONDO","beds":3,"baths":3,"sqft":1776.0,"lat":1.30458,"lng":103.827689,"url":"https://www.propertyguru.com.sg/listing/for-sale-boulevard-88-24904092","image":null},{"id":"25208965","title":"Watten House","address":"38 Shelford Road","price":7706000,"pricePretty":"S$ 7,706,000","listingType":"SALE","propertyType":"Condominium","propertyTypeCode":"CONDO","beds":5,"baths":4,"sqft":2368.0,"lat":1.3284648208148955,"lng":103.81107999426725,"url":"https://www.propertyguru.com.sg/listing/for-sale-watten-house-25208965","image":null},{"id":"500049782","title":"Watten House","address":"38 Shelford Road","price":7706000,"pricePretty":"S$ 7,706,000","listingType":"SALE","propertyType":"Condominium","propertyTypeCode":"CONDO","beds":5,"baths":5,"sqft":2368.0,"lat":1.3284648208148955,"lng":103.81107999426725,"url":"https://www.propertyguru.com.sg/listing/for-sale-watten-house-500049782","image":null},{"id":"500047701","title":"West Coast Grove","address":"","price":7600000,"pricePretty":"S$ 7,600,000","listingType":"SALE","propertyType":"Corner Terrace","propertyTypeCode":"CORN","beds":5,"baths":4,"sqft":2633.0,"lat":1.31668,"lng":103.75773,"url":"https://www.propertyguru.com.sg/listing/for-sale-west-coast-grove-500047701","image":null},{"id":"60093748","title":"Seletar Hills","address":"","price":7180000,"pricePretty":"S$ 7,180,000","listingType":"SALE","propertyType":"Corner Terrace","propertyTypeCode":"CORN","beds":5,"baths":5,"sqft":3000.0,"lat":1.38667,"lng":103.87108,"url":"https://www.propertyguru.com.sg/listing/for-sale-seletar-hills-60093748","image":null},{"id":"60144942","title":"UPPERHOUSE at Orchard Boulevard","address":"22 Orchard Boulevard","price":7054000,"pricePretty":"S$ 7,054,000","listingType":"SALE","propertyType":"Condominium","propertyTypeCode":"CONDO","beds":4,"baths":4,"sqft":2056.0,"lat":1.302568708162761,"lng":103.82398471263396,"url":"https://www.propertyguru.com.sg/listing/for-sale-upperhouse-at-orchard-boulevard-60144942","image":null},{"id":"60196594","title":"32 LORONG 24A GEYLANG","address":"Lorong 24A Geylang","price":7000000,"pricePretty":"S$ 7,000,000","listingType":"SALE","propertyType":"Conservation House","propertyTypeCode":"CON","beds":4,"baths":3,"sqft":3312.0,"lat":1.31414,"lng":103.88621,"url":"https://www.propertyguru.com.sg/listing/for-sale-32-lorong-24a-geylang-60196594","image":null},{"id":"25566650","title":"The Sovereign","address":"99 Meyer Road","price":6980000,"pricePretty":"S$ 6,980,000","listingType":"SALE","propertyType":"Condominium","propertyTypeCode":"CONDO","beds":4,"baths":6,"sqft":2637.0,"lat":1.297213,"lng":103.89352,"url":"https://www.propertyguru.com.sg/listing/for-sale-the-sovereign-25566650","image":null},{"id":"500037896","title":"Jalan Ishak","address":"Jalan Ishak","price":6900000,"pricePretty":"S$ 6,900,000","listingType":"SALE","propertyType":"Semi-Detached House","propertyTypeCode":"SEMI","beds":6,"baths":4,"sqft":3633.0,"lat":1.324799,"lng":103.906412,"url":"https://www.propertyguru.com.sg/listing/for-sale-jalan-ishak-500037896","image":null},{"id":"60180326","title":"Luxury F. H Terrace In Orchard Shopping Belt (D09)","address":"Cairnhill/Orchard/Emerald Hill","price":6900000,"pricePretty":"S$ 6,900,000","listingType":"SALE","propertyType":"Terraced House","propertyTypeCode":"TERRA","beds":7,"baths":6,"sqft":1647.0,"lat":1.3076,"lng":103.83612,"url":"https://www.propertyguru.com.sg/listing/for-sale-luxury-f-h-terrace-in-orchard-shopping-belt-d09-60180326","image":null},{"id":"60202226","title":"Hilltops","address":"99 Cairnhill Circle","price":6823000,"pricePretty":"S$ 6,823,000","listingType":"SALE","propertyType":"Condominium","propertyTypeCode":"CONDO","beds":4,"baths":3,"sqft":1733.0,"lat":1.306847,"lng":103.83876,"url":"https://www.propertyguru.com.sg/listing/for-sale-hilltops-60202226","image":null},{"id":"60183937","title":"Freehold Renovated Corner Terrace; 3696sqft Land Size at Faber Estate!","address":"Faber Terrace, Faber Drive, Faber Green, Faber Drive","price":6800000,"pricePretty":"S$ 6,800,000","listingType":"SALE","propertyType":"Corner Terrace","propertyTypeCode":"CORN","beds":5,"baths":4,"sqft":3000.0,"lat":1.32319,"lng":103.75909,"url":"https://www.propertyguru.com.sg/listing/for-sale-freehold-renovated-corner-terrace-3696sqft-land-size-at-faber-estate-60183937","image":null},{"id":"500033168","title":"Luxury Family Semi-D in Seletar | 6BR | Garden Living | Near Greenwich V","address":"Seletar hills","price":6800000,"pricePretty":"S$ 6,800,000","listingType":"SALE","propertyType":"Semi-Detached House","propertyTypeCode":"SEMI","beds":5,"baths":5,"sqft":4300.0,"lat":1.38893,"lng":103.87378,"url":"https://www.propertyguru.com.sg/listing/for-sale-luxury-family-semi-d-in-seletar-6br-garden-living-near-greenwich-v-500033168","image":null},{"id":"25418229","title":"The Orchard Residences","address":"238 Orchard Boulevard","price":6799999,"pricePretty":"S$ 6,799,999","listingType":"SALE","propertyType":"Condominium","propertyTypeCode":"CONDO","beds":4,"baths":4,"sqft":2174.0,"lat":1.304356,"lng":103.831557,"url":"https://www.propertyguru.com.sg/listing/for-sale-the-orchard-residences-25418229","image":null},{"id":"25554895","title":"Springleaf Garden","address":"Springleaf Road","price":6690000,"pricePretty":"S$ 6,690,000","listingType":"SALE","propertyType":"Semi-Detached House","propertyTypeCode":"SEMI","beds":5,"baths":4,"sqft":4160.0,"lat":1.39903,"lng":103.82411,"url":"https://www.propertyguru.com.sg/listing/for-sale-springleaf-garden-25554895","image":null},{"id":"60162997","title":"The Holland Collection","address":"53 Holland Road","price":6588888,"pricePretty":"S$ 6,588,888","listingType":"SALE","propertyType":"Apartment","propertyTypeCode":"APT","beds":5,"baths":6,"sqft":3423.0,"lat":1.30889,"lng":103.80804,"url":"https://www.propertyguru.com.sg/listing/for-sale-the-holland-collection-60162997","image":null},{"id":"60013891","title":"The Boulevard Residence","address":"6 Cuscaden Walk","price":6500000,"pricePretty":"S$ 6,500,000","listingType":"SALE","propertyType":"Condominium","propertyTypeCode":"CONDO","beds":3,"baths":3,"sqft":2034.0,"lat":1.303844,"lng":103.828542,"url":"https://www.propertyguru.com.sg/listing/for-sale-the-boulevard-residence-60013891","image":null},{"id":"60089161","title":"Brand new freehold, 2.5 storey with lift! TOP soon!","address":"Jalan Leban","price":6400000,"pricePretty":"S$ 6,400,000","listingType":"SALE","propertyType":"Terraced House","propertyTypeCode":"TERRA","beds":5,"baths":6,"sqft":2012.0,"lat":1.37641,"lng":103.83315,"url":"https://www.propertyguru.com.sg/listing/for-sale-brand-new-freehold-2-5-storey-with-lift-top-soon-60089161","image":null},{"id":"60069734","title":"Sky @ Eleven","address":"7 Thomson Lane","price":6400000,"pricePretty":"S$ 6,400,000","listingType":"SALE","propertyType":"Condominium","propertyTypeCode":"CONDO","beds":4,"baths":5,"sqft":2713.0,"lat":1.33125,"lng":103.840611,"url":"https://www.propertyguru.com.sg/listing/for-sale-sky-eleven-60069734","image":null},{"id":"25545962","title":"Jalan leban","address":"Jalan Leban. Brand New with Lift! TOP Soon!","price":6400000,"pricePretty":"S$ 6,400,000","listingType":"SALE","propertyType":"Terraced House","propertyTypeCode":"TERRA","beds":5,"baths":7,"sqft":2010.0,"lat":1.37641,"lng":103.83315,"url":"https://www.propertyguru.com.sg/listing/for-sale-jalan-leban-25545962","image":null},{"id":"60194279","title":"The Boulevard Residence","address":"6 Cuscaden Walk","price":6388888,"pricePretty":"S$ 6,388,888","listingType":"SALE","propertyType":"Condominium","propertyTypeCode":"CONDO","beds":4,"baths":4,"sqft":2034.0,"lat":1.303844,"lng":103.828542,"url":"https://www.propertyguru.com.sg/listing/for-sale-the-boulevard-residence-60194279","image":null},{"id":"500023444","title":"Draycott Eight","address":"6 Draycott Park","price":6320520,"pricePretty":"S$ 6,320,520","listingType":"SALE","propertyType":"Condominium","propertyTypeCode":"CONDO","beds":4,"baths":4,"sqft":2896.0,"lat":1.310966,"lng":103.832118,"url":"https://www.propertyguru.com.sg/listing/for-sale-draycott-eight-500023444","image":null},{"id":"500016006","title":"Draycott Eight","address":"6 Draycott Park","price":6320520,"pricePretty":"S$ 6,320,520","listingType":"SALE","propertyType":"Condominium","propertyTypeCode":"CONDO","beds":4,"baths":5,"sqft":2896.0,"lat":1.310966,"lng":103.832118,"url":"https://www.propertyguru.com.sg/listing/for-sale-draycott-eight-500016006","image":null},{"id":"500037957","title":"Cape Royale","address":"13 Cove Way","price":6311800,"pricePretty":"S$ 6,311,800","listingType":"SALE","propertyType":"Condominium","propertyTypeCode":"CONDO","beds":4,"baths":3,"sqft":2508.0,"lat":1.2416518,"lng":103.8398738,"url":"https://www.propertyguru.com.sg/listing/for-sale-cape-royale-500037957","image":null},{"id":"60166462","title":"WAK HASSAN DRIVE","address":"Wak Hassan Drive","price":6300000,"pricePretty":"S$ 6,300,000","listingType":"SALE","propertyType":"Detached House","propertyTypeCode":"DETAC","beds":8,"baths":8,"sqft":4908.0,"lat":1.46254,"lng":103.84277,"url":"https://www.propertyguru.com.sg/listing/for-sale-wak-hassan-drive-60166462","image":null},{"id":"60176118","title":"The Tessarina","address":"20 Wilby Road","price":6288888,"pricePretty":"S$ 6,288,888","listingType":"SALE","propertyType":"Condominium","propertyTypeCode":"CONDO","beds":4,"baths":4,"sqft":3670.0,"lat":1.332862,"lng":103.789684,"url":"https://www.propertyguru.com.sg/listing/for-sale-the-tessarina-60176118","image":null},{"id":"500045069","title":"Modern 3.5+ basement Storey Corner-T @ Teacher's Housing Estate Upper Thomson Springleaf Lentor CHIJ","address":"","price":6288000,"pricePretty":"S$ 6,288,000","listingType":"SALE","propertyType":"Corner Terrace","propertyTypeCode":"CORN","beds":7,"baths":5,"sqft":2449.0,"lat":1.38239,"lng":103.83077,"url":"https://www.propertyguru.com.sg/listing/for-sale-modern-3-5-basement-storey-corner-t-teacher-s-housing-estate-upper-thomson-springleaf-lentor-chij-500045069","image":null},{"id":"24312260","title":"111 Emerald Hill","address":"111 Emerald Hill","price":6240000,"pricePretty":"S$ 6,240,000","listingType":"SALE","propertyType":"Condominium","propertyTypeCode":"CONDO","beds":4,"baths":4,"sqft":2496.0,"lat":1.305003,"lng":103.839,"url":"https://www.propertyguru.com.sg/listing/for-sale-111-emerald-hill-24312260","image":null},{"id":"25596772","title":"Astrid Meadows","address":"42 Coronation Road West","price":6198000,"pricePretty":"S$ 6,198,000","listingType":"SALE","propertyType":"Condominium","propertyTypeCode":"CONDO","beds":4,"baths":4,"sqft":2583.0,"lat":1.319152,"lng":103.794559,"url":"https://www.propertyguru.com.sg/listing/for-sale-astrid-meadows-25596772","image":null},{"id":"23559027","title":"Oxley Residence","address":"51A Oxley Road","price":6175200,"pricePretty":"S$ 6,175,200","listingType":"SALE","propertyType":"Condominium","propertyTypeCode":"CONDO","beds":4,"baths":6,"sqft":2573.0,"lat":1.2964021,"lng":103.8406205,"url":"https://www.propertyguru.com.sg/listing/for-sale-oxley-residence-23559027","image":null},{"id":"60094988","title":"The Harbour Residences","address":"Pasir Panjang Road","price":6131000,"pricePretty":"S$ 6,131,000","listingType":"SALE","propertyType":"Terraced House","propertyTypeCode":"TERRA","beds":5,"baths":5,"sqft":1990.0,"lat":1.28886,"lng":103.78121,"url":"https://www.propertyguru.com.sg/listing/for-sale-the-harbour-residences-60094988","image":null},{"id":"500021642","title":"Pasir Ris Avenue","address":"","price":6100000,"pricePretty":"S$ 6,100,000","listingType":"SALE","propertyType":"Semi-Detached House","propertyTypeCode":"SEMI","beds":4,"baths":3,"sqft":4002.0,"lat":1.38383,"lng":103.94731,"url":"https://www.propertyguru.com.sg/listing/for-sale-pasir-ris-avenue-500021642","image":null},{"id":"60187111","title":"💎 RARE FREEHOLD D10 4BR | 2637SQFT | ARDMORE PARK LANDED FEEL","address":"Draycott Park","price":5995000,"pricePretty":"S$ 5,995,000","listingType":"SALE","propertyType":"Condominium","propertyTypeCode":"CONDO","beds":4,"baths":4,"sqft":2637.0,"lat":1.311727,"lng":103.831282,"url":"https://www.propertyguru.com.sg/listing/for-sale-rare-freehold-d10-4br-2637sqft-ardmore-park-landed-feel-60187111","image":null},{"id":"60045825","title":"The Draycott","address":"50 Draycott Park","price":5995000,"pricePretty":"S$ 5,995,000","listingType":"SALE","propertyType":"Condominium","propertyTypeCode":"CONDO","beds":4,"baths":5,"sqft":2637.0,"lat":1.3117,"lng":103.83137,"url":"https://www.propertyguru.com.sg/listing/for-sale-the-draycott-60045825","image":null},{"id":"60178332","title":"The Draycott","address":"50 Draycott Park","price":5995000,"pricePretty":"S$ 5,995,000","listingType":"SALE","propertyType":"Condominium","propertyTypeCode":"CONDO","beds":4,"baths":4,"sqft":2637.0,"lat":1.3117,"lng":103.83137,"url":"https://www.propertyguru.com.sg/listing/for-sale-the-draycott-60178332","image":null},{"id":"60198761","title":"The Draycott","address":"50 Draycott Park","price":5995000,"pricePretty":"S$ 5,995,000","listingType":"SALE","propertyType":"Condominium","propertyTypeCode":"CONDO","beds":4,"baths":4,"sqft":2637.0,"lat":1.3117,"lng":103.83137,"url":"https://www.propertyguru.com.sg/listing/for-sale-the-draycott-60198761","image":null},{"id":"60023331","title":"⭐CASUARINA ROAD⭐ UNDER VALUED READY TO MOVE IN YOUR DREAM TERRACE⭐","address":"Sembawang Hills,Upper Thomson Road,Gelenggang","price":5888826,"pricePretty":"S$ 5,888,826","listingType":"SALE","propertyType":"Terraced House","propertyTypeCode":"TERRA","beds":5,"baths":7,"sqft":1513.0,"lat":1.37738,"lng":103.83042,"url":"https://www.propertyguru.com.sg/listing/for-sale-casuarina-road-under-valued-ready-to-move-in-your-dream-terrace-60023331","image":null},{"id":"24338753","title":"Almost New Modern 2 storey Semi D at Meng Suan Road. Face greenery view!","address":"Meng Suan Road","price":5880000,"pricePretty":"S$ 5,880,000","listingType":"SALE","propertyType":"Semi-Detached House","propertyTypeCode":"SEMI","beds":5,"baths":5,"sqft":4184.0,"lat":1.403552,"lng":103.815117,"url":"https://www.propertyguru.com.sg/listing/for-sale-almost-new-modern-2-storey-semi-d-at-meng-suan-road-face-greenery-view-24338753","image":null},{"id":"500033278","title":"Martin Place Residences","address":"2 Martin Place","price":5800000,"pricePretty":"S$ 5,800,000","listingType":"SALE","propertyType":"Condominium","propertyTypeCode":"CONDO","beds":4,"baths":4,"sqft":2002.0,"lat":1.2938402,"lng":103.8386345,"url":"https://www.propertyguru.com.sg/listing/for-sale-martin-place-residences-500033278","image":null},{"id":"60070294","title":"Skye at Holland","address":"2 Holland Village Way","price":5770000,"pricePretty":"S$ 5,770,000","listingType":"SALE","propertyType":"Condominium","propertyTypeCode":"CONDO","beds":5,"baths":5,"sqft":1765.0,"lat":1.3121646,"lng":103.7926898,"url":"https://www.propertyguru.com.sg/listing/for-sale-skye-at-holland-60070294","image":null},{"id":"60219409","title":"3sty Cosy 90s Semid","address":"Jalan rimau/jalan punai","price":5680000,"pricePretty":"S$ 5,680,000","listingType":"SALE","propertyType":"Semi-Detached House","propertyTypeCode":"SEMI","beds":6,"baths":4,"sqft":3139.0,"lat":1.33111,"lng":103.90905,"url":"https://www.propertyguru.com.sg/listing/for-sale-3sty-cosy-90s-semid-60219409","image":null},{"id":"25456773","title":"The Avenir","address":"8 River Valley Close","price":5600000,"pricePretty":"S$ 5,600,000","listingType":"SALE","propertyType":"Condominium","propertyTypeCode":"CONDO","beds":3,"baths":3,"sqft":1528.0,"lat":1.29486,"lng":103.83652,"url":"https://www.propertyguru.com.sg/listing/for-sale-the-avenir-25456773","image":null},{"id":"500043940","title":"Pandan Valley","address":"1 Pandan Valley","price":5562000,"pricePretty":"S$ 5,562,000","listingType":"SALE","propertyType":"Condominium","propertyTypeCode":"CONDO","beds":4,"baths":3,"sqft":3272.0,"lat":1.31997,"lng":103.77872,"url":"https://www.propertyguru.com.sg/listing/for-sale-pandan-valley-500043940","image":null},{"id":"24156192","title":"Helios Residences","address":"15 Cairnhill Circle","price":5500000,"pricePretty":"S$ 5,500,000","listingType":"SALE","propertyType":"Condominium","propertyTypeCode":"CONDO","beds":4,"baths":4,"sqft":2002.0,"lat":1.307775,"lng":103.837895,"url":"https://www.propertyguru.com.sg/listing/for-sale-helios-residences-24156192","image":null},{"id":"25588004","title":"Springleaf Garden","address":"Springleaf Road","price":5499999,"pricePretty":"S$ 5,499,999","listingType":"SALE","propertyType":"Semi-Detached House","propertyTypeCode":"SEMI","beds":5,"baths":3,"sqft":3480.0,"lat":1.39903,"lng":103.82411,"url":"https://www.propertyguru.com.sg/listing/for-sale-springleaf-garden-25588004","image":null},{"id":"500038206","title":"River Modern","address":"River Valley Green","price":5496000,"pricePretty":"S$ 5,496,000","listingType":"SALE","propertyType":"Condominium","propertyTypeCode":"CONDO","beds":4,"baths":3,"sqft":1830.0,"lat":1.2933062225935261,"lng":103.83480890514389,"url":"https://www.propertyguru.com.sg/listing/for-sale-river-modern-500038206","image":null},{"id":"21508715","title":"Belle Vue Residences","address":"33 Oxley Walk","price":5490000,"pricePretty":"S$ 5,490,000","listingType":"SALE","propertyType":"Condominium","propertyTypeCode":"CONDO","beds":3,"baths":3,"sqft":3563.0,"lat":1.29616,"lng":103.84227,"url":"https://www.propertyguru.com.sg/listing/for-sale-belle-vue-residences-21508715","image":null},{"id":"24338842","title":"Terra Hill","address":"18 Yew Siang Road","price":5475888,"pricePretty":"S$ 5,475,888","listingType":"SALE","propertyType":"Condominium","propertyTypeCode":"CONDO","beds":4,"baths":3,"sqft":1894.0,"lat":1.2785,"lng":103.79371,"url":"https://www.propertyguru.com.sg/listing/for-sale-terra-hill-24338842","image":null},{"id":"60169358","title":"Cheap Fully Renovated Corner Terrace At Pavillion With Pool","address":"Pavillion","price":5468000,"pricePretty":"S$ 5,468,000","listingType":"SALE","propertyType":"Corner Terrace","propertyTypeCode":"CORN","beds":5,"baths":5,"sqft":2580.0,"lat":1.37113,"lng":103.75543,"url":"https://www.propertyguru.com.sg/listing/for-sale-cheap-fully-renovated-corner-terrace-at-pavillion-with-pool-60169358","image":null},{"id":"500036280","title":"River Modern","address":"River Valley Green","price":5453400,"pricePretty":"S$ 5,453,400","listingType":"SALE","propertyType":"Condominium","propertyTypeCode":"CONDO","beds":4,"baths":5,"sqft":1830.0,"lat":1.2932757,"lng":103.8349519,"url":"https://www.propertyguru.com.sg/listing/for-sale-river-modern-500036280","image":null},{"id":"500031963","title":"Springleaf Garden","address":"Springleaf Road","price":5380000,"pricePretty":"S$ 5,380,000","listingType":"SALE","propertyType":"Semi-Detached House","propertyTypeCode":"SEMI","beds":4,"baths":4,"sqft":3553.0,"lat":1.397178,"lng":103.821907,"url":"https://www.propertyguru.com.sg/listing/for-sale-springleaf-garden-500031963","image":null},{"id":"25274059","title":"One Tree Hill Residence","address":"1A One Tree Hill","price":5300000,"pricePretty":"S$ 5,300,000","listingType":"SALE","propertyType":"Condominium","propertyTypeCode":"CONDO","beds":4,"baths":4,"sqft":2207.0,"lat":1.300508,"lng":103.824631,"url":"https://www.propertyguru.com.sg/listing/for-sale-one-tree-hill-residence-25274059","image":null},{"id":"500053736","title":"Jalan Kemuning Sembawang New Inter Terrace","address":"","price":5280000,"pricePretty":"S$ 5,280,000","listingType":"SALE","propertyType":"Terraced House","propertyTypeCode":"TERRA","beds":6,"baths":8,"sqft":1696.0,"lat":1.43965,"lng":103.826631,"url":"https://www.propertyguru.com.sg/listing/for-sale-jalan-kemuning-sembawang-new-inter-terrace-500053736","image":null},{"id":"500046486","title":"Claydence","address":"97 Still Road","price":5200000,"pricePretty":"S$ 5,200,000","listingType":"SALE","propertyType":"Apartment","propertyTypeCode":"APT","beds":4,"baths":4,"sqft":2185.0,"lat":1.3135889151359061,"lng":103.90635298483345,"url":"https://www.propertyguru.com.sg/listing/for-sale-claydence-500046486","image":null},{"id":"500047843","title":"Hilltops","address":"101 Cairnhill Circle","price":5000000,"pricePretty":"S$ 5,000,000","listingType":"SALE","propertyType":"Condominium","propertyTypeCode":"CONDO","beds":3,"baths":3,"sqft":1550.0,"lat":1.306847,"lng":103.83876,"url":"https://www.propertyguru.com.sg/listing/for-sale-hilltops-500047843","image":null},{"id":"60223901","title":"Seascape @ Sentosa Cove","address":"55 Cove Way","price":5000000,"pricePretty":"S$ 5,000,000","listingType":"SALE","propertyType":"Apartment","propertyTypeCode":"APT","beds":3,"baths":3,"sqft":2174.0,"lat":1.239435,"lng":103.836842,"url":"https://www.propertyguru.com.sg/listing/for-sale-seascape-sentosa-cove-60223901","image":null},{"id":"20113436","title":"Montview","address":"63 Mount Sinai Drive","price":4999999,"pricePretty":"S$ 4,999,999","listingType":"SALE","propertyType":"Condominium","propertyTypeCode":"CONDO","beds":4,"baths":5,"sqft":3412.0,"lat":1.316219,"lng":103.777999,"url":"https://www.propertyguru.com.sg/listing/for-sale-montview-20113436","image":null},{"id":"500042833","title":"Perfect Ten","address":"323 Bukit Timah Road","price":4988800,"pricePretty":"S$ 4,988,800","listingType":"SALE","propertyType":"Condominium","propertyTypeCode":"CONDO","beds":3,"baths":3,"sqft":1227.0,"lat":1.31722,"lng":103.83248,"url":"https://www.propertyguru.com.sg/listing/for-sale-perfect-ten-500042833","image":null},{"id":"60135304","title":"Riviere","address":"1 Jiak Kim Street","price":4980000,"pricePretty":"S$ 4,980,000","listingType":"SALE","propertyType":"Condominium","propertyTypeCode":"CONDO","beds":3,"baths":3,"sqft":1711.0,"lat":1.291457,"lng":103.835004,"url":"https://www.propertyguru.com.sg/listing/for-sale-riviere-60135304","image":null},{"id":"500043451","title":"Luxus Hills","address":"Seletar Green Walk","price":4980000,"pricePretty":"S$ 4,980,000","listingType":"SALE","propertyType":"Terraced House","propertyTypeCode":"TERRA","beds":5,"baths":5,"sqft":1615.0,"lat":1.3805799357212,"lng":103.87296311977002,"url":"https://www.propertyguru.com.sg/listing/for-sale-luxus-hills-500043451","image":null},{"id":"60127607","title":"d'Leedon (Former Farrer Court)","address":"15 Leedon Heights","price":4900000,"pricePretty":"S$ 4,900,000","listingType":"SALE","propertyType":"Condominium","propertyTypeCode":"CONDO","beds":4,"baths":4,"sqft":2433.0,"lat":1.3159905965763,"lng":103.80440711975,"url":"https://www.propertyguru.com.sg/listing/for-sale-d-leedon-former-farrer-court-60127607","image":null},{"id":"25632662","title":"Midtown Modern","address":"16 Tan Quee Lan Street","price":4828000,"pricePretty":"S$ 4,828,000","listingType":"SALE","propertyType":"Condominium","propertyTypeCode":"CONDO","beds":4,"baths":4,"sqft":1442.0,"lat":1.29853284830755,"lng":103.85688970959612,"url":"https://www.propertyguru.com.sg/listing/for-sale-midtown-modern-25632662","image":null},{"id":"60159644","title":"Sembawang Straits Estate","address":"1 Jalan Basong","price":4800000,"pricePretty":"S$ 4,800,000","listingType":"SALE","propertyType":"Semi-Detached House","propertyTypeCode":"SEMI","beds":4,"baths":5,"sqft":2614.0,"lat":1.456454,"lng":103.834641,"url":"https://www.propertyguru.com.sg/listing/for-sale-sembawang-straits-estate-60159644","image":null},{"id":"60190812","title":"Martin Modern","address":"10 Martin Place","price":4800000,"pricePretty":"S$ 4,800,000","listingType":"SALE","propertyType":"Apartment","propertyTypeCode":"APT","beds":3,"baths":3,"sqft":1421.0,"lat":1.293977,"lng":103.8388852,"url":"https://www.propertyguru.com.sg/listing/for-sale-martin-modern-60190812","image":null},{"id":"500019542","title":"Watten House","address":"38 Shelford Road","price":4799000,"pricePretty":"S$ 4,799,000","listingType":"SALE","propertyType":"Condominium","propertyTypeCode":"CONDO","beds":3,"baths":4,"sqft":1539.0,"lat":1.3284648208148955,"lng":103.81107999426725,"url":"https://www.propertyguru.com.sg/listing/for-sale-watten-house-500019542","image":null},{"id":"24870705","title":"Watten House","address":"38 Shelford Road","price":4799000,"pricePretty":"S$ 4,799,000","listingType":"SALE","propertyType":"Condominium","propertyTypeCode":"CONDO","beds":3,"baths":4,"sqft":1539.0,"lat":1.3284648208148955,"lng":103.81107999426725,"url":"https://www.propertyguru.com.sg/listing/for-sale-watten-house-24870705","image":null},{"id":"24939325","title":"Watten House","address":"38 Shelford Road","price":4799000,"pricePretty":"S$ 4,799,000","listingType":"SALE","propertyType":"Condominium","propertyTypeCode":"CONDO","beds":3,"baths":3,"sqft":1539.0,"lat":1.3284648208148955,"lng":103.81107999426725,"url":"https://www.propertyguru.com.sg/listing/for-sale-watten-house-24939325","image":null},{"id":"25091360","title":"Turquoise","address":"Cove Drive,Sentosa","price":4697000,"pricePretty":"S$ 4,697,000","listingType":"SALE","propertyType":"Condominium","propertyTypeCode":"CONDO","beds":3,"baths":4,"sqft":3111.0,"lat":1.246324,"lng":103.836208,"url":"https://www.propertyguru.com.sg/listing/for-sale-turquoise-25091360","image":null},{"id":"500049672","title":"Centro Residences","address":"59 Ang Mo Kio Avenue 8","price":4655000,"pricePretty":"S$ 4,655,000","listingType":"SALE","propertyType":"Condominium","propertyTypeCode":"CONDO","beds":4,"baths":4,"sqft":1733.0,"lat":1.3704353,"lng":103.8487346,"url":"https://www.propertyguru.com.sg/listing/for-sale-centro-residences-500049672","image":null},{"id":"23528354","title":"Matlock Residences","address":"Matlock Rise","price":4600000,"pricePretty":"S$ 4,600,000","listingType":"SALE","propertyType":"Bungalow House","propertyTypeCode":"LBUNG","beds":4,"baths":6,"sqft":5760.0,"lat":1.3465086,"lng":103.8637381,"url":"https://www.propertyguru.com.sg/listing/for-sale-matlock-residences-23528354","image":null},{"id":"500052384","title":"St Michael's Road","address":"St Michael's Road","price":4500000,"pricePretty":"S$ 4,500,000","listingType":"SALE","propertyType":"Terraced House","propertyTypeCode":"TERRA","beds":4,"baths":3,"sqft":1690.0,"lat":1.328,"lng":103.86596,"url":"https://www.propertyguru.com.sg/listing/for-sale-st-michael-s-road-500052384","image":null},{"id":"60077121","title":"The Interlace","address":"226 Depot Road","price":4500000,"pricePretty":"S$ 4,500,000","listingType":"SALE","propertyType":"Condominium","propertyTypeCode":"CONDO","beds":3,"baths":3,"sqft":4467.0,"lat":1.282573,"lng":103.804304,"url":"https://www.propertyguru.com.sg/listing/for-sale-the-interlace-60077121","image":null},{"id":"500028648","title":"CHEAP! Brand New Cheaper Than Resale! ☎️ 8321.8433","address":"","price":4489000,"pricePretty":"S$ 4,489,000","listingType":"SALE","propertyType":"Condominium","propertyTypeCode":"CONDO","beds":4,"baths":5,"sqft":1927.0,"lat":1.308683,"lng":103.890521,"url":"https://www.propertyguru.com.sg/listing/for-sale-cheap-brand-new-cheaper-than-resale-8321-8433-500028648","image":null},{"id":"25303133","title":"The Marbella","address":"33 Mount Sinai Rise","price":4488000,"pricePretty":"S$ 4,488,000","listingType":"SALE","propertyType":"Condominium","propertyTypeCode":"CONDO","beds":4,"baths":4,"sqft":1755.0,"lat":1.3146611025923562,"lng":103.77838390028708,"url":"https://www.propertyguru.com.sg/listing/for-sale-the-marbella-25303133","image":null},{"id":"24323972","title":"The Continuum","address":"3 Thiam Siew Avenue","price":4481000,"pricePretty":"S$ 4,481,000","listingType":"SALE","propertyType":"Condominium","propertyTypeCode":"CONDO","beds":4,"baths":5,"sqft":1690.0,"lat":1.31098,"lng":103.89477,"url":"https://www.propertyguru.com.sg/listing/for-sale-the-continuum-24323972","image":null},{"id":"500017790","title":"The Continuum","address":"1-8 Thiam Siew Avenue","price":4480000,"pricePretty":"S$ 4,480,000","listingType":"SALE","propertyType":"Condominium","propertyTypeCode":"CONDO","beds":4,"baths":5,"sqft":1690.0,"lat":1.31098,"lng":103.89477,"url":"https://www.propertyguru.com.sg/listing/for-sale-the-continuum-500017790","image":null},{"id":"60121252","title":"Bloomsbury Residences","address":"61 Media Circle","price":4470000,"pricePretty":"S$ 4,470,000","listingType":"SALE","propertyType":"Apartment","propertyTypeCode":"APT","beds":5,"baths":3,"sqft":1668.0,"lat":1.2943208084648805,"lng":103.79541045636475,"url":"https://www.propertyguru.com.sg/listing/for-sale-bloomsbury-residences-60121252","image":null},{"id":"24436686","title":"The Continuum","address":"3 Thiam Siew Avenue","price":4400000,"pricePretty":"S$ 4,400,000","listingType":"SALE","propertyType":"Condominium","propertyTypeCode":"CONDO","beds":4,"baths":4,"sqft":1690.0,"lat":1.31098,"lng":103.89477,"url":"https://www.propertyguru.com.sg/listing/for-sale-the-continuum-24436686","image":null},{"id":"21172863","title":"Mont Timah","address":"Bukit Way","price":4300000,"pricePretty":"S$ 4,300,000","listingType":"SALE","propertyType":"Terraced House","propertyTypeCode":"TERRA","beds":4,"baths":5,"sqft":4542.0,"lat":1.3469746,"lng":103.7773377,"url":"https://www.propertyguru.com.sg/listing/for-sale-mont-timah-21172863","image":null},{"id":"500004059","title":"Trevose Park","address":"70 Trevose Crescent","price":4250000,"pricePretty":"S$ 4,250,000","listingType":"SALE","propertyType":"Condominium","propertyTypeCode":"CONDO","beds":3,"baths":2,"sqft":1948.0,"lat":1.324342,"lng":103.825205,"url":"https://www.propertyguru.com.sg/listing/for-sale-trevose-park-500004059","image":null},{"id":"500043118","title":"Nouvel 18","address":"18 Anderson Road","price":4200000,"pricePretty":"S$ 4,200,000","listingType":"SALE","propertyType":"Condominium","propertyTypeCode":"CONDO","beds":3,"baths":2,"sqft":1335.0,"lat":1.31151,"lng":103.827765,"url":"https://www.propertyguru.com.sg/listing/for-sale-nouvel-18-500043118","image":null},{"id":"25124638","title":"Cuscaden Residences","address":"28 Cuscaden Road","price":4200000,"pricePretty":"S$ 4,200,000","listingType":"SALE","propertyType":"Condominium","propertyTypeCode":"CONDO","beds":3,"baths":4,"sqft":1453.0,"lat":1.304837,"lng":103.82669,"url":"https://www.propertyguru.com.sg/listing/for-sale-cuscaden-residences-25124638","image":null},{"id":"500031432","title":"River Place","address":"60 Havelock Road","price":4170000,"pricePretty":"S$ 4,170,000","listingType":"SALE","propertyType":"Condominium","propertyTypeCode":"CONDO","beds":4,"baths":3,"sqft":2067.0,"lat":1.2893,"lng":103.840977,"url":"https://www.propertyguru.com.sg/listing/for-sale-river-place-500031432","image":null},{"id":"60131392","title":"The Centrio","address":"53 Irrawaddy Road","price":4150000,"pricePretty":"S$ 4,150,000","listingType":"SALE","propertyType":"Apartment","propertyTypeCode":"APT","beds":4,"baths":3,"sqft":2971.0,"lat":1.325223,"lng":103.845995,"url":"https://www.propertyguru.com.sg/listing/for-sale-the-centrio-60131392","image":null},{"id":"60160430","title":"Pebble Bay","address":"130 Tanjong Rhu Road","price":4150000,"pricePretty":"S$ 4,150,000","listingType":"SALE","propertyType":"Condominium","propertyTypeCode":"CONDO","beds":4,"baths":4,"sqft":2336.0,"lat":1.297796,"lng":103.871193,"url":"https://www.propertyguru.com.sg/listing/for-sale-pebble-bay-60160430","image":null},{"id":"500022603","title":"⭐️CHEAP⭐️ Freehold Terrace At Springside Walk","address":"Springside Walk/Sembawang Road/Springside Drive/Upper Thomson Road","price":4100000,"pricePretty":"S$ 4,100,000","listingType":"SALE","propertyType":"Terraced House","propertyTypeCode":"TERRA","beds":5,"baths":5,"sqft":1679.0,"lat":1.40605,"lng":103.82359,"url":"https://www.propertyguru.com.sg/listing/for-sale-cheap-freehold-terrace-at-springside-walk-500022603","image":null},{"id":"60183921","title":"The Springside","address":"Springside Walk","price":4100000,"pricePretty":"S$ 4,100,000","listingType":"SALE","propertyType":"Terraced House","propertyTypeCode":"TERRA","beds":5,"baths":5,"sqft":1679.0,"lat":1.40545,"lng":103.82322,"url":"https://www.propertyguru.com.sg/listing/for-sale-the-springside-60183921","image":null},{"id":"500040746","title":"The Florence Residences","address":"714 Hougang Avenue 2","price":4100000,"pricePretty":"S$ 4,100,000","listingType":"SALE","propertyType":"Condominium","propertyTypeCode":"CONDO","beds":5,"baths":4,"sqft":1920.0,"lat":1.36721,"lng":103.88706,"url":"https://www.propertyguru.com.sg/listing/for-sale-the-florence-residences-500040746","image":null},{"id":"25428228","title":"Clementi Park","address":"135 Sunset Way","price":4080000,"pricePretty":"S$ 4,080,000","listingType":"SALE","propertyType":"Condominium","propertyTypeCode":"CONDO","beds":4,"baths":4,"sqft":2691.0,"lat":1.3299,"lng":103.7664,"url":"https://www.propertyguru.com.sg/listing/for-sale-clementi-park-25428228","image":null},{"id":"500023495","title":"Bartley Ridge","address":"38 Mount Vernon Road","price":4050000,"pricePretty":"S$ 4,050,000","listingType":"SALE","propertyType":"Condominium","propertyTypeCode":"CONDO","beds":4,"baths":4,"sqft":2121.0,"lat":1.3415804,"lng":103.8810633,"url":"https://www.propertyguru.com.sg/listing/for-sale-bartley-ridge-500023495","image":null},{"id":"60067996","title":"Grand Dunman","address":"18 Dunman Road","price":4050000,"pricePretty":"S$ 4,050,000","listingType":"SALE","propertyType":"Condominium","propertyTypeCode":"CONDO","beds":5,"baths":4,"sqft":1679.0,"lat":1.308279541054929,"lng":103.89069527096078,"url":"https://www.propertyguru.com.sg/listing/for-sale-grand-dunman-60067996","image":null},{"id":"500045352","title":"St Michael Regency","address":"38 St. Michael Road","price":4000000,"pricePretty":"S$ 4,000,000","listingType":"SALE","propertyType":"Condominium","propertyTypeCode":"CONDO","beds":4,"baths":5,"sqft":3875.0,"lat":1.328183,"lng":103.864381,"url":"https://www.propertyguru.com.sg/listing/for-sale-st-michael-regency-500045352","image":null},{"id":"25633297","title":"The Cascadia","address":"943 Bukit Timah Road","price":3999999,"pricePretty":"S$ 3,999,999","listingType":"SALE","propertyType":"Condominium","propertyTypeCode":"CONDO","beds":3,"baths":2,"sqft":2347.0,"lat":1.333857,"lng":103.787594,"url":"https://www.propertyguru.com.sg/listing/for-sale-the-cascadia-25633297","image":null},{"id":"24238651","title":"d'Leedon (Former Farrer Court)","address":"13 Leedon Heights","price":3999999,"pricePretty":"S$ 3,999,999","listingType":"SALE","propertyType":"Condominium","propertyTypeCode":"CONDO","beds":3,"baths":3,"sqft":1787.0,"lat":1.3159905965763,"lng":103.80440711975,"url":"https://www.propertyguru.com.sg/listing/for-sale-d-leedon-former-farrer-court-24238651","image":null},{"id":"500003868","title":"Parbury Hill Condominium","address":"28 Parbury Avenue","price":3998000,"pricePretty":"S$ 3,998,000","listingType":"SALE","propertyType":"Condominium","propertyTypeCode":"CONDO","beds":4,"baths":5,"sqft":2184.0,"lat":1.31782,"lng":103.943625,"url":"https://www.propertyguru.com.sg/listing/for-sale-parbury-hill-condominium-500003868","image":null},{"id":"25631592","title":"JadeScape","address":"314 Shunfu Road","price":3990000,"pricePretty":"S$ 3,990,000","listingType":"SALE","propertyType":"Condominium","propertyTypeCode":"CONDO","beds":4,"baths":3,"sqft":1647.0,"lat":1.351708886211185,"lng":103.8385031699857,"url":"https://www.propertyguru.com.sg/listing/for-sale-jadescape-25631592","image":null},{"id":"500028253","title":"Verdale","address":"14 De Souza Avenue","price":3988000,"pricePretty":"S$ 3,988,000","listingType":"SALE","propertyType":"Condominium","propertyTypeCode":"CONDO","beds":5,"baths":5,"sqft":1873.0,"lat":1.345326,"lng":103.769181,"url":"https://www.propertyguru.com.sg/listing/for-sale-verdale-500028253","image":null},{"id":"60002063","title":"Chuan Park","address":"240 Lorong Chuan","price":3900200,"pricePretty":"S$ 3,900,200","listingType":"SALE","propertyType":"Condominium","propertyTypeCode":"CONDO","beds":5,"baths":4,"sqft":1550.0,"lat":1.3521021406857638,"lng":103.86464739237819,"url":"https://www.propertyguru.com.sg/listing/for-sale-chuan-park-60002063","image":null},{"id":"25478370","title":"V on Shenton","address":"5 Shenton Way","price":3900000,"pricePretty":"S$ 3,900,000","listingType":"SALE","propertyType":"Condominium","propertyTypeCode":"CONDO","beds":3,"baths":3,"sqft":1755.0,"lat":1.2774437168073085,"lng":103.84931534528698,"url":"https://www.propertyguru.com.sg/listing/for-sale-v-on-shenton-25478370","image":null},{"id":"60170702","title":"Arina East Residences","address":"6D Tanjong Rhu Road","price":3898000,"pricePretty":"S$ 3,898,000","listingType":"SALE","propertyType":"Condominium","propertyTypeCode":"CONDO","beds":4,"baths":4,"sqft":1389.0,"lat":1.299845239691772,"lng":103.8841865378702,"url":"https://www.propertyguru.com.sg/listing/for-sale-arina-east-residences-60170702","image":null},{"id":"60206148","title":"Chuan Park","address":"246 Lorong Chuan","price":3896600,"pricePretty":"S$ 3,896,600","listingType":"SALE","propertyType":"Condominium","propertyTypeCode":"CONDO","beds":5,"baths":3,"sqft":1550.0,"lat":1.352962770614456,"lng":103.86453812419322,"url":"https://www.propertyguru.com.sg/listing/for-sale-chuan-park-60206148","image":null},{"id":"500035648","title":"Arina East Residences","address":"6D Tanjong Rhu Road","price":3888000,"pricePretty":"S$ 3,888,000","listingType":"SALE","propertyType":"Condominium","propertyTypeCode":"CONDO","beds":4,"baths":4,"sqft":1389.0,"lat":1.299845239691772,"lng":103.8841865378702,"url":"https://www.propertyguru.com.sg/listing/for-sale-arina-east-residences-500035648","image":null},{"id":"25604587","title":"Parc Vera","address":"10 Hougang Street 32","price":3880000,"pricePretty":"S$ 3,880,000","listingType":"SALE","propertyType":"Condominium","propertyTypeCode":"CONDO","beds":5,"baths":4,"sqft":3305.0,"lat":1.3637959425386,"lng":103.89502286911,"url":"https://www.propertyguru.com.sg/listing/for-sale-parc-vera-25604587","image":null},{"id":"25614277","title":"Latitude","address":"31 Jalan Mutiara","price":3800000,"pricePretty":"S$ 3,800,000","listingType":"SALE","propertyType":"Condominium","propertyTypeCode":"CONDO","beds":2,"baths":3,"sqft":1324.0,"lat":1.296365,"lng":103.828397,"url":"https://www.propertyguru.com.sg/listing/for-sale-latitude-25614277","image":null},{"id":"500019352","title":"Pandan Valley","address":"4 Pandan Valley","price":3800000,"pricePretty":"S$ 3,800,000","listingType":"SALE","propertyType":"Condominium","propertyTypeCode":"CONDO","beds":4,"baths":4,"sqft":2024.0,"lat":1.31997,"lng":103.77872,"url":"https://www.propertyguru.com.sg/listing/for-sale-pandan-valley-500019352","image":null},{"id":"25335424","title":"The Cascadia","address":"939 Bukit Timah Road","price":3800000,"pricePretty":"S$ 3,800,000","listingType":"SALE","propertyType":"Condominium","propertyTypeCode":"CONDO","beds":3,"baths":3,"sqft":2970.0,"lat":1.333857,"lng":103.787594,"url":"https://www.propertyguru.com.sg/listing/for-sale-the-cascadia-25335424","image":null},{"id":"24824456","title":"The Greenwood","address":"205A Greenwood Avenue","price":3800000,"pricePretty":"S$ 3,800,000","listingType":"SALE","propertyType":"Cluster House","propertyTypeCode":"LCLUS","beds":5,"baths":5,"sqft":3000.0,"lat":1.337262,"lng":103.80481,"url":"https://www.propertyguru.com.sg/listing/for-sale-the-greenwood-24824456","image":null},{"id":"500051551","title":"UE Square","address":"205 River Valley Road","price":3790000,"pricePretty":"S$ 3,790,000","listingType":"SALE","propertyType":"Apartment","propertyTypeCode":"APT","beds":4,"baths":4,"sqft":1572.0,"lat":1.29284,"lng":103.84235,"url":"https://www.propertyguru.com.sg/listing/for-sale-ue-square-500051551","image":null},{"id":"24248890","title":"Almost move-in condition Freehold Terrace at Changi Heights vicinity","address":"Jalan Sinar Bintang","price":3788000,"pricePretty":"S$ 3,788,000","listingType":"SALE","propertyType":"Terraced House","propertyTypeCode":"TERRA","beds":5,"baths":5,"sqft":1731.0,"lat":1.36508,"lng":103.97359,"url":"https://www.propertyguru.com.sg/listing/for-sale-almost-move-in-condition-freehold-terrace-at-changi-heights-vicinity-24248890","image":null},{"id":"500043241","title":"Cote D'Azur","address":"60 Marine Parade Road","price":3750000,"pricePretty":"S$ 3,750,000","listingType":"SALE","propertyType":"Condominium","propertyTypeCode":"CONDO","beds":3,"baths":3,"sqft":2207.0,"lat":1.300687,"lng":103.904125,"url":"https://www.propertyguru.com.sg/listing/for-sale-cote-d-azur-500043241","image":null},{"id":"500029353","title":"Henry Park 1km CHEAP! ☎️ 8321.8433","address":"","price":3731700,"pricePretty":"S$ 3,731,700","listingType":"SALE","propertyType":"Condominium","propertyTypeCode":"CONDO","beds":4,"baths":4,"sqft":1464.0,"lat":1.318356,"lng":103.776062,"url":"https://www.propertyguru.com.sg/listing/for-sale-henry-park-1km-cheap-8321-8433-500029353","image":null},{"id":"392252","title":"The Coast at Sentosa Cove","address":"280 Ocean Drive","price":3700800,"pricePretty":"S$ 3,700,800","listingType":"SALE","propertyType":"Condominium","propertyTypeCode":"CONDO","beds":4,"baths":4,"sqft":2600.0,"lat":1.246532,"lng":103.84456,"url":"https://www.propertyguru.com.sg/listing/for-sale-the-coast-at-sentosa-cove-392252","image":null},{"id":"500024285","title":"The Esta","address":"37 Amber Gardens","price":3700000,"pricePretty":"S$ 3,700,000","listingType":"SALE","propertyType":"Condominium","propertyTypeCode":"CONDO","beds":4,"baths":3,"sqft":1474.0,"lat":1.302436,"lng":103.899897,"url":"https://www.propertyguru.com.sg/listing/for-sale-the-esta-500024285","image":null},{"id":"25499617","title":"PARKTOWN Residence","address":"Tampines Street 62","price":3700000,"pricePretty":"S$ 3,700,000","listingType":"SALE","propertyType":"Condominium","propertyTypeCode":"CONDO","beds":5,"baths":3,"sqft":1679.0,"lat":1.3675676967888224,"lng":103.93621690245234,"url":"https://www.propertyguru.com.sg/listing/for-sale-parktown-residence-25499617","image":null},{"id":"60019179","title":"Wallich Residence","address":"3 Wallich Street","price":3680000,"pricePretty":"S$ 3,680,000","listingType":"SALE","propertyType":"Condominium","propertyTypeCode":"CONDO","beds":3,"baths":2,"sqft":1195.0,"lat":1.277022,"lng":103.845371,"url":"https://www.propertyguru.com.sg/listing/for-sale-wallich-residence-60019179","image":null},{"id":"25346399","title":"The Beverly","address":"45 Toh Tuck Road","price":3680000,"pricePretty":"S$ 3,680,000","listingType":"SALE","propertyType":"Apartment","propertyTypeCode":"APT","beds":3,"baths":3,"sqft":2992.0,"lat":1.3392635214609905,"lng":103.76749662879068,"url":"https://www.propertyguru.com.sg/listing/for-sale-the-beverly-25346399","image":null},{"id":"60231084","title":"The Continuum","address":"1-8 Thiam Siew Avenue","price":3653000,"pricePretty":"S$ 3,653,000","listingType":"SALE","propertyType":"Condominium","propertyTypeCode":"CONDO","beds":4,"baths":3,"sqft":1292.0,"lat":1.31098,"lng":103.89477,"url":"https://www.propertyguru.com.sg/listing/for-sale-the-continuum-60231084","image":null},{"id":"24861428","title":"The Continuum","address":"1-8 Thiam Siew Avenue","price":3653000,"pricePretty":"S$ 3,653,000","listingType":"SALE","propertyType":"Apartment","propertyTypeCode":"APT","beds":4,"baths":3,"sqft":1292.0,"lat":1.31098,"lng":103.89477,"url":"https://www.propertyguru.com.sg/listing/for-sale-the-continuum-24861428","image":null},{"id":"25429168","title":"OUE Twin Peaks","address":"33 Leonie Hill Road","price":3650000,"pricePretty":"S$ 3,650,000","listingType":"SALE","propertyType":"Condominium","propertyTypeCode":"CONDO","beds":3,"baths":3,"sqft":1399.0,"lat":1.2995612,"lng":103.8338623,"url":"https://www.propertyguru.com.sg/listing/for-sale-oue-twin-peaks-25429168","image":null},{"id":"60161487","title":"OUE Twin Peaks","address":"33 Leonie Hill Road","price":3650000,"pricePretty":"S$ 3,650,000","listingType":"SALE","propertyType":"Condominium","propertyTypeCode":"CONDO","beds":3,"baths":3,"sqft":1399.0,"lat":1.2995612,"lng":103.8338623,"url":"https://www.propertyguru.com.sg/listing/for-sale-oue-twin-peaks-60161487","image":null},{"id":"25555703","title":"d'Leedon (Former Farrer Court)","address":"13 Leedon Heights","price":3650000,"pricePretty":"S$ 3,650,000","listingType":"SALE","propertyType":"Condominium","propertyTypeCode":"CONDO","beds":3,"baths":3,"sqft":1787.0,"lat":1.3159905965763,"lng":103.80440711975,"url":"https://www.propertyguru.com.sg/listing/for-sale-d-leedon-former-farrer-court-25555703","image":null},{"id":"25317788","title":"8@BT","address":"6 Bukit Timah Link","price":3620000,"pricePretty":"S$ 3,620,000","listingType":"SALE","propertyType":"Condominium","propertyTypeCode":"CONDO","beds":4,"baths":2,"sqft":1356.0,"lat":1.3415,"lng":103.7769,"url":"https://www.propertyguru.com.sg/listing/for-sale-8-bt-25317788","image":null},{"id":"14628199","title":"Marina Bay Residences","address":"18 Marina Boulevard","price":3600000,"pricePretty":"S$ 3,600,000","listingType":"SALE","propertyType":"Condominium","propertyTypeCode":"CONDO","beds":2,"baths":2,"sqft":1216.0,"lat":1.280676,"lng":103.853177,"url":"https://www.propertyguru.com.sg/listing/for-sale-marina-bay-residences-14628199","image":null},{"id":"500029892","title":"The Teneriffe","address":"110 Laurel Wood Avenue","price":3590000,"pricePretty":"S$ 3,590,000","listingType":"SALE","propertyType":"Cluster House","propertyTypeCode":"CLUS","beds":5,"baths":5,"sqft":3100.0,"lat":1.3264932656647421,"lng":103.79028655952452,"url":"https://www.propertyguru.com.sg/listing/for-sale-the-teneriffe-500029892","image":null},{"id":"24372108","title":"Blossoms By The Park","address":"9 Slim Barracks Rise","price":3590000,"pricePretty":"S$ 3,590,000","listingType":"SALE","propertyType":"Condominium","propertyTypeCode":"CONDO","beds":4,"baths":4,"sqft":1507.0,"lat":1.3043407,"lng":103.7895069,"url":"https://www.propertyguru.com.sg/listing/for-sale-blossoms-by-the-park-24372108","image":null},{"id":"500045210","title":"One Devonshire","address":"1 Devonshire Road","price":3570000,"pricePretty":"S$ 3,570,000","listingType":"SALE","propertyType":"Condominium","propertyTypeCode":"CONDO","beds":3,"baths":3,"sqft":1195.0,"lat":1.298958,"lng":103.837122,"url":"https://www.propertyguru.com.sg/listing/for-sale-one-devonshire-500045210","image":null},{"id":"60139655","title":"Belmond Green","address":"15 Balmoral Road","price":3550000,"pricePretty":"S$ 3,550,000","listingType":"SALE","propertyType":"Condominium","propertyTypeCode":"CONDO","beds":3,"baths":3,"sqft":1259.0,"lat":1.315305,"lng":103.831968,"url":"https://www.propertyguru.com.sg/listing/for-sale-belmond-green-60139655","image":null},{"id":"60217437","title":"Costa Del Sol","address":"72 Bayshore Road","price":3538000,"pricePretty":"S$ 3,538,000","listingType":"SALE","propertyType":"Condominium","propertyTypeCode":"CONDO","beds":4,"baths":3,"sqft":1755.0,"lat":1.311751,"lng":103.939521,"url":"https://www.propertyguru.com.sg/listing/for-sale-costa-del-sol-60217437","image":null},{"id":"25542536","title":"Terra Hill","address":"20 Yew Siang Road","price":3520000,"pricePretty":"S$ 3,520,000","listingType":"SALE","propertyType":"Condominium","propertyTypeCode":"CONDO","beds":4,"baths":4,"sqft":1335.0,"lat":1.2785,"lng":103.79371,"url":"https://www.propertyguru.com.sg/listing/for-sale-terra-hill-25542536","image":null},{"id":"25384817","title":"Nava Grove","address":"38 Pine Grove","price":3502000,"pricePretty":"S$ 3,502,000","listingType":"SALE","propertyType":"Condominium","propertyTypeCode":"CONDO","beds":4,"baths":5,"sqft":1464.0,"lat":1.3197111,"lng":103.7751028,"url":"https://www.propertyguru.com.sg/listing/for-sale-nava-grove-25384817","image":null},{"id":"500018854","title":"Casa Flora","address":"21 Salam Walk","price":3500000,"pricePretty":"S$ 3,500,000","listingType":"SALE","propertyType":"Condominium","propertyTypeCode":"CONDO","beds":3,"baths":2,"sqft":3122.0,"lat":1.32067,"lng":103.94993,"url":"https://www.propertyguru.com.sg/listing/for-sale-casa-flora-500018854","image":null},{"id":"60217097","title":"Turquoise","address":"Cove Drive,Sentosa","price":3500000,"pricePretty":"S$ 3,500,000","listingType":"SALE","propertyType":"Condominium","propertyTypeCode":"CONDO","beds":3,"baths":4,"sqft":2573.0,"lat":1.246324,"lng":103.836208,"url":"https://www.propertyguru.com.sg/listing/for-sale-turquoise-60217097","image":null},{"id":"60149442","title":"Artra","address":"10 Alexandra View","price":3500000,"pricePretty":"S$ 3,500,000","listingType":"SALE","propertyType":"Condominium","propertyTypeCode":"CONDO","beds":3,"baths":3,"sqft":1410.0,"lat":1.290087,"lng":103.816682,"url":"https://www.propertyguru.com.sg/listing/for-sale-artra-60149442","image":null},{"id":"60029501","title":"Midtown Modern","address":"18 Tan Quee Lan Street","price":3500000,"pricePretty":"S$ 3,500,000","listingType":"SALE","propertyType":"Condominium","propertyTypeCode":"CONDO","beds":3,"baths":2,"sqft":1066.0,"lat":1.29853284830755,"lng":103.85688970959612,"url":"https://www.propertyguru.com.sg/listing/for-sale-midtown-modern-60029501","image":null},{"id":"60142654","title":"The Coast at Sentosa Cove","address":"276 Ocean Drive","price":3500000,"pricePretty":"S$ 3,500,000","listingType":"SALE","propertyType":"Condominium","propertyTypeCode":"CONDO","beds":3,"baths":4,"sqft":2024.0,"lat":1.246532,"lng":103.84456,"url":"https://www.propertyguru.com.sg/listing/for-sale-the-coast-at-sentosa-cove-60142654","image":null},{"id":"500025065","title":"Oleanas Residences","address":"42 Kim Yam Road","price":3499000,"pricePretty":"S$ 3,499,000","listingType":"SALE","propertyType":"Condominium","propertyTypeCode":"CONDO","beds":4,"baths":2,"sqft":1227.0,"lat":1.29335,"lng":103.838882,"url":"https://www.propertyguru.com.sg/listing/for-sale-oleanas-residences-500025065","image":null},{"id":"60167019","title":"The Poiz Residences","address":"4 Meyappa Chettiar Road","price":3488888,"pricePretty":"S$ 3,488,888","listingType":"SALE","propertyType":"Condominium","propertyTypeCode":"CONDO","beds":4,"baths":3,"sqft":1464.0,"lat":1.3307786,"lng":103.8680329,"url":"https://www.propertyguru.com.sg/listing/for-sale-the-poiz-residences-60167019","image":null},{"id":"25569675","title":"The Continuum","address":"8 Thiam Siew Avenue","price":3442000,"pricePretty":"S$ 3,442,000","listingType":"SALE","propertyType":"Condominium","propertyTypeCode":"CONDO","beds":4,"baths":3,"sqft":1238.0,"lat":1.31098,"lng":103.89477,"url":"https://www.propertyguru.com.sg/listing/for-sale-the-continuum-25569675","image":null},{"id":"60153628","title":"Riviere","address":"1 Jiak Kim Street","price":3408000,"pricePretty":"S$ 3,408,000","listingType":"SALE","propertyType":"Condominium","propertyTypeCode":"CONDO","beds":3,"baths":2,"sqft":1173.0,"lat":1.291457,"lng":103.835004,"url":"https://www.propertyguru.com.sg/listing/for-sale-riviere-60153628","image":null},{"id":"24935279","title":"Blossoms By The Park","address":"9 Slim Barracks Rise","price":3400000,"pricePretty":"S$ 3,400,000","listingType":"SALE","propertyType":"Condominium","propertyTypeCode":"CONDO","beds":5,"baths":4,"sqft":1507.0,"lat":1.3043407,"lng":103.7895069,"url":"https://www.propertyguru.com.sg/listing/for-sale-blossoms-by-the-park-24935279","image":null},{"id":"24253585","title":"Klimt Cairnhill","address":"71 Cairnhill Road","price":3398000,"pricePretty":"S$ 3,398,000","listingType":"SALE","propertyType":"Condominium","propertyTypeCode":"CONDO","beds":2,"baths":2,"sqft":893.0,"lat":1.309389267670262,"lng":103.83605432509555,"url":"https://www.propertyguru.com.sg/listing/for-sale-klimt-cairnhill-24253585","image":null},{"id":"500033557","title":"Watercove","address":"","price":3388000,"pricePretty":"S$ 3,388,000","listingType":"SALE","propertyType":"Cluster House","propertyTypeCode":"LCLUS","beds":4,"baths":7,"sqft":3434.0,"lat":1.4616,"lng":103.839234,"url":"https://www.propertyguru.com.sg/listing/for-sale-watercove-500033557","image":null},{"id":"60148966","title":"The Continuum","address":"1-8 Thiam Siew Avenue","price":3387000,"pricePretty":"S$ 3,387,000","listingType":"SALE","propertyType":"Condominium","propertyTypeCode":"CONDO","beds":4,"baths":3,"sqft":1238.0,"lat":1.31098,"lng":103.89477,"url":"https://www.propertyguru.com.sg/listing/for-sale-the-continuum-60148966","image":null},{"id":"500040685","title":"Myra","address":"9 Meyappa Chettiar Road","price":3380000,"pricePretty":"S$ 3,380,000","listingType":"SALE","propertyType":"Condominium","propertyTypeCode":"CONDO","beds":4,"baths":4,"sqft":1324.0,"lat":1.330781,"lng":103.868125,"url":"https://www.propertyguru.com.sg/listing/for-sale-myra-500040685","image":null},{"id":"25538843","title":"The Continuum","address":"1-8 Thiam Siew Avenue","price":3372000,"pricePretty":"S$ 3,372,000","listingType":"SALE","propertyType":"Condominium","propertyTypeCode":"CONDO","beds":4,"baths":3,"sqft":1238.0,"lat":1.31098,"lng":103.89477,"url":"https://www.propertyguru.com.sg/listing/for-sale-the-continuum-25538843","image":null},{"id":"24323924","title":"The Continuum","address":"3 Thiam Siew Avenue","price":3372000,"pricePretty":"S$ 3,372,000","listingType":"SALE","propertyType":"Condominium","propertyTypeCode":"CONDO","beds":3,"baths":3,"sqft":1227.0,"lat":1.31098,"lng":103.89477,"url":"https://www.propertyguru.com.sg/listing/for-sale-the-continuum-24323924","image":null},{"id":"24886602","title":"The LakeGarden Residences","address":"80 Yuan Ching Road","price":3368000,"pricePretty":"S$ 3,368,000","listingType":"SALE","propertyType":"Condominium","propertyTypeCode":"CONDO","beds":5,"baths":3,"sqft":1550.0,"lat":1.336675907395547,"lng":103.72514244356157,"url":"https://www.propertyguru.com.sg/listing/for-sale-the-lakegarden-residences-24886602","image":null},{"id":"500020399","title":"Burgundy Hill","address":"Burgundy Crescent","price":3350000,"pricePretty":"S$ 3,350,000","listingType":"SALE","propertyType":"Semi-Detached House","propertyTypeCode":"SEMI","beds":4,"baths":4,"sqft":2661.0,"lat":1.3409,"lng":103.76321,"url":"https://www.propertyguru.com.sg/listing/for-sale-burgundy-hill-500020399","image":null},{"id":"60180988","title":"Nyon","address":"12 Amber Road","price":3350000,"pricePretty":"S$ 3,350,000","listingType":"SALE","propertyType":"Condominium","propertyTypeCode":"CONDO","beds":3,"baths":2,"sqft":1292.0,"lat":1.299417,"lng":103.898379,"url":"https://www.propertyguru.com.sg/listing/for-sale-nyon-60180988","image":null},{"id":"60080490","title":"Claydence","address":"97 Still Road","price":3350000,"pricePretty":"S$ 3,350,000","listingType":"SALE","propertyType":"Apartment","propertyTypeCode":"APT","beds":4,"baths":3,"sqft":1313.0,"lat":1.3135889151359061,"lng":103.90635298483345,"url":"https://www.propertyguru.com.sg/listing/for-sale-claydence-60080490","image":null},{"id":"500050385","title":"The Nexus","address":"963 Bukit Timah Road","price":3350000,"pricePretty":"S$ 3,350,000","listingType":"SALE","propertyType":"Condominium","propertyTypeCode":"CONDO","beds":3,"baths":2,"sqft":1346.0,"lat":1.334319,"lng":103.786055,"url":"https://www.propertyguru.com.sg/listing/for-sale-the-nexus-500050385","image":null},{"id":"500041916","title":"10 Evelyn","address":"10 Evelyn Road","price":3339000,"pricePretty":"S$ 3,339,000","listingType":"SALE","propertyType":"Condominium","propertyTypeCode":"CONDO","beds":3,"baths":2,"sqft":1431.0,"lat":1.316128,"lng":103.840252,"url":"https://www.propertyguru.com.sg/listing/for-sale-10-evelyn-500041916","image":null},{"id":"60113723","title":"The Landmark","address":"173 Chin Swee Road","price":3338000,"pricePretty":"S$ 3,338,000","listingType":"SALE","propertyType":"Condominium","propertyTypeCode":"CONDO","beds":3,"baths":3,"sqft":1141.0,"lat":1.286082,"lng":103.83958,"url":"https://www.propertyguru.com.sg/listing/for-sale-the-landmark-60113723","image":null},{"id":"60232577","title":"River Modern","address":"River Valley Green","price":3330000,"pricePretty":"S$ 3,330,000","listingType":"SALE","propertyType":"Condominium","propertyTypeCode":"CONDO","beds":3,"baths":3,"sqft":1098.0,"lat":1.2933062225935261,"lng":103.83480890514389,"url":"https://www.propertyguru.com.sg/listing/for-sale-river-modern-60232577","image":null},{"id":"60214508","title":"Lentor Hills Residences","address":"39  Lentor Hills Road","price":3300000,"pricePretty":"S$ 3,300,000","listingType":"SALE","propertyType":"Apartment","propertyTypeCode":"APT","beds":4,"baths":4,"sqft":1399.0,"lat":1.3838585,"lng":103.8345069,"url":"https://www.propertyguru.com.sg/listing/for-sale-lentor-hills-residences-60214508","image":null},{"id":"60226867","title":"The Poiz Residences","address":"8 Meyappa Chettiar Road","price":3300000,"pricePretty":"S$ 3,300,000","listingType":"SALE","propertyType":"Condominium","propertyTypeCode":"CONDO","beds":4,"baths":3,"sqft":1464.0,"lat":1.3307786,"lng":103.8680329,"url":"https://www.propertyguru.com.sg/listing/for-sale-the-poiz-residences-60226867","image":null},{"id":"60171833","title":"The Blossomvale","address":"900 Dunearn Road","price":3300000,"pricePretty":"S$ 3,300,000","listingType":"SALE","propertyType":"Condominium","propertyTypeCode":"CONDO","beds":3,"baths":2,"sqft":1356.0,"lat":1.337126,"lng":103.7824,"url":"https://www.propertyguru.com.sg/listing/for-sale-the-blossomvale-60171833","image":null},{"id":"500043388","title":"The Topiary","address":"11 Fernvale Lane","price":3290000,"pricePretty":"S$ 3,290,000","listingType":"SALE","propertyType":"Executive Condominium","propertyTypeCode":"EXCON","beds":4,"baths":4,"sqft":2174.0,"lat":1.3882854929300386,"lng":103.8723555207223,"url":"https://www.propertyguru.com.sg/listing/for-sale-the-topiary-500043388","image":null},{"id":"25538076","title":"d'Leedon (Former Farrer Court)","address":"5 Leedon Heights","price":3280000,"pricePretty":"S$ 3,280,000","listingType":"SALE","propertyType":"Condominium","propertyTypeCode":"CONDO","beds":3,"baths":3,"sqft":1604.0,"lat":1.3159905965763,"lng":103.80440711975,"url":"https://www.propertyguru.com.sg/listing/for-sale-d-leedon-former-farrer-court-25538076","image":null},{"id":"25488877","title":"Spring Grove","address":"53 Grange Road","price":3250000,"pricePretty":"S$ 3,250,000","listingType":"SALE","propertyType":"Condominium","propertyTypeCode":"CONDO","beds":3,"baths":3,"sqft":1668.0,"lat":1.297729,"lng":103.827228,"url":"https://www.propertyguru.com.sg/listing/for-sale-spring-grove-25488877","image":null},{"id":"500042653","title":"26 Eastwood Green","address":"Eastwood Green","price":3250000,"pricePretty":"S$ 3,250,000","listingType":"SALE","propertyType":"Terraced House","propertyTypeCode":"TERRA","beds":7,"baths":5,"sqft":1968.0,"lat":1.322839,"lng":103.956215,"url":"https://www.propertyguru.com.sg/listing/for-sale-26-eastwood-green-500042653","image":null},{"id":"60229918","title":"Newport Residences","address":"80 Anson Road","price":3238000,"pricePretty":"S$ 3,238,000","listingType":"SALE","propertyType":"Condominium","propertyTypeCode":"CONDO","beds":3,"baths":3,"sqft":1206.0,"lat":1.2734837855339078,"lng":103.8436136532537,"url":"https://www.propertyguru.com.sg/listing/for-sale-newport-residences-60229918","image":null},{"id":"24269315","title":"The Coast at Sentosa Cove","address":"276 Ocean Drive","price":3230000,"pricePretty":"S$ 3,230,000","listingType":"SALE","propertyType":"Condominium","propertyTypeCode":"CONDO","beds":3,"baths":4,"sqft":2024.0,"lat":1.246532,"lng":103.84456,"url":"https://www.propertyguru.com.sg/listing/for-sale-the-coast-at-sentosa-cove-24269315","image":null},{"id":"500043520","title":"The Madeira","address":"50 Bukit Batok Street 31","price":3220000,"pricePretty":"S$ 3,220,000","listingType":"SALE","propertyType":"Condominium","propertyTypeCode":"CONDO","beds":4,"baths":4,"sqft":2928.0,"lat":1.356882,"lng":103.749369,"url":"https://www.propertyguru.com.sg/listing/for-sale-the-madeira-500043520","image":null},{"id":"500052742","title":"Hillview Heights","address":"27 Hillview Avenue","price":3200000,"pricePretty":"S$ 3,200,000","listingType":"SALE","propertyType":"Condominium","propertyTypeCode":"CONDO","beds":4,"baths":4,"sqft":1668.0,"lat":1.361314,"lng":103.765317,"url":"https://www.propertyguru.com.sg/listing/for-sale-hillview-heights-500052742","image":null},{"id":"60054681","title":"The Robertson Opus","address":"11 Unity Street","price":3200000,"pricePretty":"S$ 3,200,000","listingType":"SALE","propertyType":"Condominium","propertyTypeCode":"CONDO","beds":3,"baths":3,"sqft":1012.0,"lat":1.2920095129654832,"lng":103.84168979040118,"url":"https://www.propertyguru.com.sg/listing/for-sale-the-robertson-opus-60054681","image":null},{"id":"500056021","title":"Whistler Grand","address":"109 West Coast Vale","price":3200000,"pricePretty":"S$ 3,200,000","listingType":"SALE","propertyType":"Condominium","propertyTypeCode":"CONDO","beds":5,"baths":3,"sqft":1442.0,"lat":1.319745,"lng":103.753828,"url":"https://www.propertyguru.com.sg/listing/for-sale-whistler-grand-500056021","image":null},{"id":"500046707","title":"Hillview Heights","address":"27 Hillview Avenue","price":3200000,"pricePretty":"S$ 3,200,000","listingType":"SALE","propertyType":"Condominium","propertyTypeCode":"CONDO","beds":4,"baths":4,"sqft":1668.0,"lat":1.361314,"lng":103.765317,"url":"https://www.propertyguru.com.sg/listing/for-sale-hillview-heights-500046707","image":null},{"id":"500040896","title":"River Modern","address":"River Valley Green","price":3200000,"pricePretty":"S$ 3,200,000","listingType":"SALE","propertyType":"Condominium","propertyTypeCode":"CONDO","beds":3,"baths":3,"sqft":1098.0,"lat":1.2932757,"lng":103.8349519,"url":"https://www.propertyguru.com.sg/listing/for-sale-river-modern-500040896","image":null},{"id":"60104647","title":"The Rainforest","address":"331 Choa Chu Kang Avenue 3","price":3200000,"pricePretty":"S$ 3,200,000","listingType":"SALE","propertyType":"Executive Condominium","propertyTypeCode":"EXCON","beds":4,"baths":4,"sqft":2476.0,"lat":1.3835601637105073,"lng":103.74834194335986,"url":"https://www.propertyguru.com.sg/listing/for-sale-the-rainforest-60104647","image":null},{"id":"500039028","title":"Lentor Hills Residences","address":"Lentor Hills Road (Parcel A), Ang Mo Kio","price":3200000,"pricePretty":"S$ 3,200,000","listingType":"SALE","propertyType":"Apartment","propertyTypeCode":"APT","beds":4,"baths":4,"sqft":1399.0,"lat":1.3838585,"lng":103.8345069,"url":"https://www.propertyguru.com.sg/listing/for-sale-lentor-hills-residences-500039028","image":null},{"id":"60225980","title":"Townhouse Apartments","address":"139 Cavenagh Road","price":3200000,"pricePretty":"S$ 3,200,000","listingType":"SALE","propertyType":"Apartment","propertyTypeCode":"APT","beds":4,"baths":4,"sqft":2142.0,"lat":1.309158,"lng":103.842693,"url":"https://www.propertyguru.com.sg/listing/for-sale-townhouse-apartments-60225980","image":null},{"id":"500027833","title":"Haig Court","address":"152 Haig Road","price":3199999,"pricePretty":"S$ 3,199,999","listingType":"SALE","propertyType":"Condominium","propertyTypeCode":"CONDO","beds":3,"baths":3,"sqft":1453.0,"lat":1.306419638482595,"lng":103.89834370160717,"url":"https://www.propertyguru.com.sg/listing/for-sale-haig-court-500027833","image":null},{"id":"25431772","title":"Chuan Park","address":"240 Lorong Chuan","price":3180000,"pricePretty":"S$ 3,180,000","listingType":"SALE","propertyType":"Condominium","propertyTypeCode":"CONDO","beds":null,"baths":0,"sqft":1206.0,"lat":1.3521021406857638,"lng":103.86464739237819,"url":"https://www.propertyguru.com.sg/listing/for-sale-chuan-park-25431772","image":null},{"id":"500020353","title":"Terra Hill","address":"20 Yew Siang Road","price":3180000,"pricePretty":"S$ 3,180,000","listingType":"SALE","propertyType":"Condominium","propertyTypeCode":"CONDO","beds":4,"baths":4,"sqft":1335.0,"lat":1.2785,"lng":103.79371,"url":"https://www.propertyguru.com.sg/listing/for-sale-terra-hill-500020353","image":null},{"id":"60206141","title":"Chuan Park","address":"244 Lorong Chuan","price":3171400,"pricePretty":"S$ 3,171,400","listingType":"SALE","propertyType":"Condominium","propertyTypeCode":"CONDO","beds":3,"baths":2,"sqft":1206.0,"lat":1.3532061391531325,"lng":103.86456451437255,"url":"https://www.propertyguru.com.sg/listing/for-sale-chuan-park-60206141","image":null},{"id":"500020324","title":"River Modern","address":"River Valley Green","price":3162201,"pricePretty":"S$ 3,162,201","listingType":"SALE","propertyType":"Condominium","propertyTypeCode":"CONDO","beds":3,"baths":3,"sqft":1098.0,"lat":1.2932757,"lng":103.8349519,"url":"https://www.propertyguru.com.sg/listing/for-sale-river-modern-500020324","image":null},{"id":"25636501","title":"LIV @ MB","address":"114A Arthur Road","price":3150000,"pricePretty":"S$ 3,150,000","listingType":"SALE","propertyType":"Condominium","propertyTypeCode":"CONDO","beds":3,"baths":2,"sqft":1119.0,"lat":1.3001928921660113,"lng":103.88800736848947,"url":"https://www.propertyguru.com.sg/listing/for-sale-liv-mb-25636501","image":null},{"id":"500029427","title":"d'Leedon (Former Farrer Court)","address":"7 Leedon Heights","price":3150000,"pricePretty":"S$ 3,150,000","listingType":"SALE","propertyType":"Condominium","propertyTypeCode":"CONDO","beds":3,"baths":3,"sqft":1367.0,"lat":1.3159905965763,"lng":103.80440711975,"url":"https://www.propertyguru.com.sg/listing/for-sale-d-leedon-former-farrer-court-500029427","image":null},{"id":"60064553","title":"Promenade Peak","address":"1 Zion Road","price":3149700,"pricePretty":"S$ 3,149,700","listingType":"SALE","propertyType":"Condominium","propertyTypeCode":"CONDO","beds":3,"baths":2,"sqft":1033.0,"lat":1.2915895687144425,"lng":103.83304708101447,"url":"https://www.propertyguru.com.sg/listing/for-sale-promenade-peak-60064553","image":null},{"id":"60206170","title":"Springleaf Residence","address":"Upper Thomson Road","price":3131000,"pricePretty":"S$ 3,131,000","listingType":"SALE","propertyType":"Condominium","propertyTypeCode":"CONDO","beds":5,"baths":4,"sqft":1453.0,"lat":1.3961848090066034,"lng":103.81784145031995,"url":"https://www.propertyguru.com.sg/listing/for-sale-springleaf-residence-60206170","image":null},{"id":"60204848","title":"Seaside Residences","address":"10 Siglap Link","price":3100000,"pricePretty":"S$ 3,100,000","listingType":"SALE","propertyType":"Apartment","propertyTypeCode":"APT","beds":3,"baths":3,"sqft":1087.0,"lat":1.30781,"lng":103.9282,"url":"https://www.propertyguru.com.sg/listing/for-sale-seaside-residences-60204848","image":null},{"id":"24813989","title":"Woodsville 28","address":"28 Woodsville Close","price":3100000,"pricePretty":"S$ 3,100,000","listingType":"SALE","propertyType":"Condominium","propertyTypeCode":"CONDO","beds":4,"baths":3,"sqft":2368.0,"lat":1.33054,"lng":103.86843,"url":"https://www.propertyguru.com.sg/listing/for-sale-woodsville-28-24813989","image":null},{"id":"60034564","title":"Bartley Ridge","address":"42 Mount Vernon Road","price":3100000,"pricePretty":"S$ 3,100,000","listingType":"SALE","propertyType":"Condominium","propertyTypeCode":"CONDO","beds":3,"baths":3,"sqft":1625.0,"lat":1.3415804,"lng":103.8810633,"url":"https://www.propertyguru.com.sg/listing/for-sale-bartley-ridge-60034564","image":null},{"id":"60135707","title":"Hyll on Holland","address":"89 Holland Road","price":3080000,"pricePretty":"S$ 3,080,000","listingType":"SALE","propertyType":"Condominium","propertyTypeCode":"CONDO","beds":3,"baths":2,"sqft":1055.0,"lat":1.310472,"lng":103.804141,"url":"https://www.propertyguru.com.sg/listing/for-sale-hyll-on-holland-60135707","image":null},{"id":"60163739","title":"Westwood Park","address":"Westwood Crescent","price":3050000,"pricePretty":"S$ 3,050,000","listingType":"SALE","propertyType":"Corner Terrace","propertyTypeCode":"CORN","beds":5,"baths":4,"sqft":2299.0,"lat":1.35313,"lng":103.7034,"url":"https://www.propertyguru.com.sg/listing/for-sale-westwood-park-60163739","image":null},{"id":"60232651","title":"Margaret Ville","address":"20 Margaret Drive","price":3050000,"pricePretty":"S$ 3,050,000","listingType":"SALE","propertyType":"Apartment","propertyTypeCode":"APT","beds":4,"baths":3,"sqft":1184.0,"lat":1.2997115211739318,"lng":103.80285718538873,"url":"https://www.propertyguru.com.sg/listing/for-sale-margaret-ville-60232651","image":null},{"id":"500056732","title":"Westwood Park","address":"Westwood Crescent","price":3000000,"pricePretty":"S$ 3,000,000","listingType":"SALE","propertyType":"Semi-Detached House","propertyTypeCode":"SEMI","beds":6,"baths":4,"sqft":2800.0,"lat":1.351285,"lng":103.701192,"url":"https://www.propertyguru.com.sg/listing/for-sale-westwood-park-500056732","image":null},{"id":"24436673","title":"The Continuum","address":"3 Thiam Siew Avenue","price":3000000,"pricePretty":"S$ 3,000,000","listingType":"SALE","propertyType":"Condominium","propertyTypeCode":"CONDO","beds":3,"baths":3,"sqft":1066.0,"lat":1.31098,"lng":103.89477,"url":"https://www.propertyguru.com.sg/listing/for-sale-the-continuum-24436673","image":null},{"id":"500052843","title":"Hillview Heights","address":"27 Hillview Avenue","price":3000000,"pricePretty":"S$ 3,000,000","listingType":"SALE","propertyType":"Condominium","propertyTypeCode":"CONDO","beds":4,"baths":4,"sqft":1679.0,"lat":1.361314,"lng":103.765317,"url":"https://www.propertyguru.com.sg/listing/for-sale-hillview-heights-500052843","image":null},{"id":"25261435","title":"Chuan Park","address":"240 Lorong Chuan","price":3000000,"pricePretty":"S$ 3,000,000","listingType":"SALE","propertyType":"Condominium","propertyTypeCode":"CONDO","beds":3,"baths":3,"sqft":1206.0,"lat":1.3521021406857638,"lng":103.86464739237819,"url":"https://www.propertyguru.com.sg/listing/for-sale-chuan-park-25261435","image":null},{"id":"500044347","title":"River Modern","address":"River Valley Green","price":3000000,"pricePretty":"S$ 3,000,000","listingType":"SALE","propertyType":"Condominium","propertyTypeCode":"CONDO","beds":3,"baths":3,"sqft":1098.0,"lat":1.2932757,"lng":103.8349519,"url":"https://www.propertyguru.com.sg/listing/for-sale-river-modern-500044347","image":null},{"id":"60110678","title":"Reflections at Keppel Bay","address":"27 Keppel Bay View","price":3000000,"pricePretty":"S$ 3,000,000","listingType":"SALE","propertyType":"Condominium","propertyTypeCode":"CONDO","beds":3,"baths":3,"sqft":1410.0,"lat":1.2668221055156,"lng":103.81187438965,"url":"https://www.propertyguru.com.sg/listing/for-sale-reflections-at-keppel-bay-60110678","image":null},{"id":"500051583","title":"D25 North–South Facing Corner Terrace | Near Singapore American School & NTUC | Move-In Condition","address":"Woodgrove Ave / Pinewood Grove","price":2999999,"pricePretty":"S$ 2,999,999","listingType":"SALE","propertyType":"Corner Terrace","propertyTypeCode":"CORN","beds":6,"baths":6,"sqft":2585.0,"lat":1.428853,"lng":103.780482,"url":"https://www.propertyguru.com.sg/listing/for-sale-d25-north-south-facing-corner-terrace-near-singapore-american-school-ntuc-move-in-condition-500051583","image":null},{"id":"500011890","title":"Bartley Ridge","address":"30 Mount Vernon Road","price":2999999,"pricePretty":"S$ 2,999,999","listingType":"SALE","propertyType":"Condominium","propertyTypeCode":"CONDO","beds":4,"baths":4,"sqft":1302.0,"lat":1.3412904371519663,"lng":103.88129618650817,"url":"https://www.propertyguru.com.sg/listing/for-sale-bartley-ridge-500011890","image":null},{"id":"500026875","title":"Uptown @ Farrer","address":"2  Perumal Road Singapore","price":2999999,"pricePretty":"S$ 2,999,999","listingType":"SALE","propertyType":"Condominium","propertyTypeCode":"CONDO","beds":4,"baths":4,"sqft":1550.0,"lat":1.312728,"lng":103.855572,"url":"https://www.propertyguru.com.sg/listing/for-sale-uptown-farrer-500026875","image":null},{"id":"60006235","title":"Burgundy Hill","address":"Burgundy Crescent","price":2980000,"pricePretty":"S$ 2,980,000","listingType":"SALE","propertyType":"Semi-Detached House","propertyTypeCode":"SEMI","beds":5,"baths":5,"sqft":2230.0,"lat":1.3409,"lng":103.76321,"url":"https://www.propertyguru.com.sg/listing/for-sale-burgundy-hill-60006235","image":null},{"id":"60206262","title":"Seventy St Patrick's","address":"70 Saint Patrick's Road","price":2980000,"pricePretty":"S$ 2,980,000","listingType":"SALE","propertyType":"Condominium","propertyTypeCode":"CONDO","beds":3,"baths":3,"sqft":1216.0,"lat":1.308226,"lng":103.914979,"url":"https://www.propertyguru.com.sg/listing/for-sale-seventy-st-patrick-s-60206262","image":null},{"id":"500014012","title":"Gem Residences","address":"1 Lorong 5 Toa Payoh","price":2980000,"pricePretty":"S$ 2,980,000","listingType":"SALE","propertyType":"Condominium","propertyTypeCode":"CONDO","beds":5,"baths":3,"sqft":1313.0,"lat":1.3389601603787347,"lng":103.8508424120175,"url":"https://www.propertyguru.com.sg/listing/for-sale-gem-residences-500014012","image":null},{"id":"500009658","title":"Caspian","address":"60 Lakeside Drive","price":2950000,"pricePretty":"S$ 2,950,000","listingType":"SALE","propertyType":"Condominium","propertyTypeCode":"CONDO","beds":4,"baths":3,"sqft":1776.0,"lat":1.3427282,"lng":103.7203004,"url":"https://www.propertyguru.com.sg/listing/for-sale-caspian-500009658","image":null},{"id":"60009990","title":"Arina East Residences","address":"6D Tanjong Rhu Road","price":2938000,"pricePretty":"S$ 2,938,000","listingType":"SALE","propertyType":"Condominium","propertyTypeCode":"CONDO","beds":3,"baths":2,"sqft":1087.0,"lat":1.299845239691772,"lng":103.8841865378702,"url":"https://www.propertyguru.com.sg/listing/for-sale-arina-east-residences-60009990","image":null},{"id":"60029386","title":"Amber House","address":"30 Amber Gardens","price":2913938,"pricePretty":"S$ 2,913,938","listingType":"SALE","propertyType":"Apartment","propertyTypeCode":"APT","beds":3,"baths":2,"sqft":980.0,"lat":1.3017835452363251,"lng":103.90042642881154,"url":"https://www.propertyguru.com.sg/listing/for-sale-amber-house-60029386","image":null},{"id":"60148504","title":"D'Manor","address":"Tanah Merah Kechil Avenue","price":2913141,"pricePretty":"S$ 2,913,141","listingType":"SALE","propertyType":"Terraced House","propertyTypeCode":"TERRA","beds":6,"baths":6,"sqft":2724.0,"lat":1.33143,"lng":103.94829,"url":"https://www.propertyguru.com.sg/listing/for-sale-d-manor-60148504","image":null},{"id":"60164657","title":"D'Manor","address":"Tanah Merah Kechil Avenue","price":2900000,"pricePretty":"S$ 2,900,000","listingType":"SALE","propertyType":"Cluster House","propertyTypeCode":"LCLUS","beds":6,"baths":6,"sqft":2723.0,"lat":1.329584,"lng":103.946083,"url":"https://www.propertyguru.com.sg/listing/for-sale-d-manor-60164657","image":null},{"id":"60231320","title":"Thomson 800","address":"800 Thomson Road","price":2899000,"pricePretty":"S$ 2,899,000","listingType":"SALE","propertyType":"Condominium","propertyTypeCode":"CONDO","beds":3,"baths":2,"sqft":1399.0,"lat":1.340492,"lng":103.837647,"url":"https://www.propertyguru.com.sg/listing/for-sale-thomson-800-60231320","image":null},{"id":"60207412","title":"The Continuum","address":"1-8 Thiam Siew Avenue","price":2880000,"pricePretty":"S$ 2,880,000","listingType":"SALE","propertyType":"Condominium","propertyTypeCode":"CONDO","beds":3,"baths":2,"sqft":1076.0,"lat":1.31098,"lng":103.89477,"url":"https://www.propertyguru.com.sg/listing/for-sale-the-continuum-60207412","image":null},{"id":"24861406","title":"The Continuum","address":"1-8 Thiam Siew Avenue","price":2880000,"pricePretty":"S$ 2,880,000","listingType":"SALE","propertyType":"Apartment","propertyTypeCode":"APT","beds":3,"baths":2,"sqft":1076.0,"lat":1.31098,"lng":103.89477,"url":"https://www.propertyguru.com.sg/listing/for-sale-the-continuum-24861406","image":null},{"id":"500033745","title":"Stevens Suites","address":"2 Stevens Close","price":2880000,"pricePretty":"S$ 2,880,000","listingType":"SALE","propertyType":"Condominium","propertyTypeCode":"CONDO","beds":3,"baths":3,"sqft":1539.0,"lat":1.31565,"lng":103.82585,"url":"https://www.propertyguru.com.sg/listing/for-sale-stevens-suites-500033745","image":null},{"id":"60157906","title":"26 Newton","address":"","price":2865000,"pricePretty":"S$ 2,865,000","listingType":"SALE","propertyType":"Condominium","propertyTypeCode":"CONDO","beds":3,"baths":2,"sqft":1493.0,"lat":1.31569,"lng":103.84161,"url":"https://www.propertyguru.com.sg/listing/for-sale-26-newton-60157906","image":null},{"id":"60210021","title":"Reflections at Keppel Bay","address":"29 Keppel Bay View","price":2850000,"pricePretty":"S$ 2,850,000","listingType":"SALE","propertyType":"Condominium","propertyTypeCode":"CONDO","beds":3,"baths":2,"sqft":1539.0,"lat":1.2668221055156,"lng":103.81187438965,"url":"https://www.propertyguru.com.sg/listing/for-sale-reflections-at-keppel-bay-60210021","image":null},{"id":"500017088","title":"Centro Residences","address":"59 Ang Mo Kio Avenue 8","price":2826250,"pricePretty":"S$ 2,826,250","listingType":"SALE","propertyType":"Condominium","propertyTypeCode":"CONDO","beds":4,"baths":2,"sqft":1281.0,"lat":1.3704353,"lng":103.8487346,"url":"https://www.propertyguru.com.sg/listing/for-sale-centro-residences-500017088","image":null},{"id":"500028345","title":"Piccadilly Grand","address":"3 Northumberland Road","price":2826200,"pricePretty":"S$ 2,826,200","listingType":"SALE","propertyType":"Condominium","propertyTypeCode":"CONDO","beds":3,"baths":3,"sqft":1087.0,"lat":1.3106914133081238,"lng":103.85220290933559,"url":"https://www.propertyguru.com.sg/listing/for-sale-piccadilly-grand-500028345","image":null},{"id":"500032533","title":"Caribbean at Keppel Bay","address":"10 Keppel Bay Drive","price":2820000,"pricePretty":"S$ 2,820,000","listingType":"SALE","propertyType":"Condominium","propertyTypeCode":"CONDO","beds":3,"baths":3,"sqft":1313.0,"lat":1.266955,"lng":103.815829,"url":"https://www.propertyguru.com.sg/listing/for-sale-caribbean-at-keppel-bay-500032533","image":null},{"id":"500007918","title":"Tembusu Grand","address":"94 Jalan Tembusu","price":2820000,"pricePretty":"S$ 2,820,000","listingType":"SALE","propertyType":"Condominium","propertyTypeCode":"CONDO","beds":3,"baths":2,"sqft":990.0,"lat":1.3047857709265736,"lng":103.8965626423245,"url":"https://www.propertyguru.com.sg/listing/for-sale-tembusu-grand-500007918","image":null},{"id":"60190903","title":"The Continuum","address":"1-8 Thiam Siew Avenue","price":2800000,"pricePretty":"S$ 2,800,000","listingType":"SALE","propertyType":"Condominium","propertyTypeCode":"CONDO","beds":3,"baths":2,"sqft":1076.0,"lat":1.31098,"lng":103.89477,"url":"https://www.propertyguru.com.sg/listing/for-sale-the-continuum-60190903","image":null},{"id":"60082993","title":"Tembusu Grand","address":"94 Jalan Tembusu","price":2800000,"pricePretty":"S$ 2,800,000","listingType":"SALE","propertyType":"Condominium","propertyTypeCode":"CONDO","beds":3,"baths":2,"sqft":990.0,"lat":1.3047857709265736,"lng":103.8965626423245,"url":"https://www.propertyguru.com.sg/listing/for-sale-tembusu-grand-60082993","image":null},{"id":"60202891","title":"Piccadilly Grand","address":"3 Northumberland Road","price":2800000,"pricePretty":"S$ 2,800,000","listingType":"SALE","propertyType":"Condominium","propertyTypeCode":"CONDO","beds":3,"baths":3,"sqft":1087.0,"lat":1.3106914133081238,"lng":103.85220290933559,"url":"https://www.propertyguru.com.sg/listing/for-sale-piccadilly-grand-60202891","image":null},{"id":"500028220","title":"Tembusu Grand","address":"94 Jalan Tembusu","price":2800000,"pricePretty":"S$ 2,800,000","listingType":"SALE","propertyType":"Condominium","propertyTypeCode":"CONDO","beds":3,"baths":2,"sqft":990.0,"lat":1.3047857709265736,"lng":103.8965626423245,"url":"https://www.propertyguru.com.sg/listing/for-sale-tembusu-grand-500028220","image":null},{"id":"25511445","title":"The Hillside","address":"343 Upper Bukit Timah Road","price":2800000,"pricePretty":"S$ 2,800,000","listingType":"SALE","propertyType":"Condominium","propertyTypeCode":"CONDO","beds":4,"baths":3,"sqft":1528.0,"lat":1.351379,"lng":103.769059,"url":"https://www.propertyguru.com.sg/listing/for-sale-the-hillside-25511445","image":null},