[{"id": "60114224", "title": "Bukit Timah road", "address": "Bukit Timah Road", "price": 80000, "pricePretty": "S$ 80,000 /mo", "listingType": "RENT", "propertyType": "Good Class Bungalow", "propertyTypeCode": "BUNG", "beds": 6, "baths": 7, "sqft": 20000.0, "lat": 1.33079, "lng": 103.80299, "url": "https://www.propertyguru.com.sg/listing/for-rent-bukit-timah-road-60114224", "image": null}, {"id": "20987907", "title": "Ultra Modern Good Class Bungalow with Garden for Rent", "address": "King Albert Park", "price": 79000, "pricePretty": "S$ 79,000 /mo", "listingType": "RENT", "propertyType": "Good Class Bungalow", "propertyTypeCode": "BUNG", "beds": 5, "baths": 6, "sqft": 15500.0, "lat": 1.33783, "lng": 103.78261, "url": "https://www.propertyguru.com.sg/listing/for-rent-ultra-modern-good-class-bungalow-with-garden-for-rent-20987907", "image": null}, {"id": "23554039", "title": "Experience the wow factor at this Ford ave GCB", "address": "Ford ave", "price": 68000, "pricePretty": "S$ 68,000 /mo", "listingType": "RENT", "propertyType": "Good Class Bungalow", "propertyTypeCode": "BUNG", "beds": 5, "baths": 7, "sqft": 15900.0, "lat": 1.3136032, "lng": 103.7957907, "url": "https://www.propertyguru.com.sg/listing/for-rent-experience-the-wow-factor-at-this-ford-ave-gcb-23554039", "image": null}, {"id": "23534597", "title": "9*4686782 Modern GCB, Close to Botanic Gardens现代植物园优质洋房", "address": "Cluny road", "price": 68000, "pricePretty": "S$ 68,000 /mo", "listingType": "RENT", "propertyType": "Good Class Bungalow", "propertyTypeCode": "BUNG", "beds": 7, "baths": 9, "sqft": 15900.0, "lat": 1.3114349, "lng": 103.8181479, "url": "https://www.propertyguru.com.sg/listing/for-rent-9-4686782-modern-gcb-close-to-botanic-gardens%E7%8E%B0%E4%BB%A3%E6%A4%8D%E7%89%A9%E5%9B%AD%E4%BC%98%E8%B4%A8%E6%B4%8B%E6%88%BF-23534597", "image": null}, {"id": "24206869", "title": "+65946*86782豪华大方得体优质洋房出租请与卢小姐联系。", "address": "+65*94686782豪华大方得体优质洋房出租请与卢小姐联系。", "price": 60000, "pricePretty": "S$ 60,000 /mo", "listingType": "RENT", "propertyType": "Good Class Bungalow", "propertyTypeCode": "BUNG", "beds": 9, "baths": 9, "sqft": 26800.0, "lat": 1.330895, "lng": 103.787982, "url": "https://www.propertyguru.com.sg/listing/for-rent-65946-86782%E8%B1%AA%E5%8D%8E%E5%A4%A7%E6%96%B9%E5%BE%97%E4%BD%93%E4%BC%98%E8%B4%A8%E6%B4%8B%E6%88%BF%E5%87%BA%E7%A7%9F%E8%AF%B7%E4%B8%8E%E5%8D%A2%E5%B0%8F%E5%A7%90%E8%81%94%E7%B3%BB-24206869", "image": null}, {"id": "500049255", "title": "Cluny Park Road", "address": "Cluny Park Road / Botanical Gardens / Ridout Road / Peirce Road / Swettenham Road", "price": 55000, "pricePretty": "S$ 55,000 /mo", "listingType": "RENT", "propertyType": "Good Class Bungalow", "propertyTypeCode": "BUNG", "beds": 6, "baths": 5, "sqft": 16006.0, "lat": 1.319204, "lng": 103.814883, "url": "https://www.propertyguru.com.sg/listing/for-rent-cluny-park-road-500049255", "image": null}, {"id": "500037401", "title": "Leedon Road", "address": "Leedon Road", "price": 48000, "pricePretty": "S$ 48,000 /mo", "listingType": "RENT", "propertyType": "Good Class Bungalow", "propertyTypeCode": "BUNG", "beds": 6, "baths": 6, "sqft": 24500.0, "lat": 1.31813, "lng": 103.80341, "url": "https://www.propertyguru.com.sg/listing/for-rent-leedon-road-500037401", "image": null}, {"id": "60211978", "title": "Swettenham Road", "address": "Swettenham Road / Dempsey / Dempsey Road / Ridout Road / Botanical Gardens / Peirce Hill / Peirce Road", "price": 40000, "pricePretty": "S$ 40,000 /mo", "listingType": "RENT", "propertyType": "Good Class Bungalow", "propertyTypeCode": "BUNG", "beds": 6, "baths": 5, "sqft": 30000.0, "lat": 1.30762, "lng": 103.80741, "url": "https://www.propertyguru.com.sg/listing/for-rent-swettenham-road-60211978", "image": null}, {"id": "20557340", "title": "Modern 2 Sty Designer Bungalow with pool and lift", "address": "Victoria Park  Rebecca Bin Tong Park Cornwall", "price": 37999, "pricePretty": "S$ 37,999 /mo", "listingType": "RENT", "propertyType": "Bungalow House", "propertyTypeCode": "LBUNG", "beds": 7, "baths": 8, "sqft": 11000.0, "lat": 1.320451, "lng": 103.801322, "url": "https://www.propertyguru.com.sg/listing/for-rent-modern-2-sty-designer-bungalow-with-pool-and-lift-20557340", "image": null}, {"id": "23952790", "title": "Hana", "address": "8 Tomlinson Road", "price": 36000, "pricePretty": "S$ 36,000 /mo", "listingType": "RENT", "propertyType": "Apartment", "propertyTypeCode": "APT", "beds": 4, "baths": 5, "sqft": 3531.0, "lat": 1.3044286933071, "lng": 103.82551557421, "url": "https://www.propertyguru.com.sg/listing/for-rent-hana-23952790", "image": null}, {"id": "500050358", "title": "Ardmore Residence", "address": "7 Ardmore Park", "price": 34000, "pricePretty": "S$ 34,000 /mo", "listingType": "RENT", "propertyType": "Condominium", "propertyTypeCode": "CONDO", "beds": 4, "baths": 4, "sqft": 3186.0, "lat": 1.3097473, "lng": 103.8284624, "url": "https://www.propertyguru.com.sg/listing/for-rent-ardmore-residence-500050358", "image": null}, {"id": "500020372", "title": "Leedon Road", "address": "Leedon Road / Leedon Park / Cornwall Gardens", "price": 30000, "pricePretty": "S$ 30,000 /mo", "listingType": "RENT", "propertyType": "Detached House", "propertyTypeCode": "DETAC", "beds": 5, "baths": 5, "sqft": 9500.0, "lat": 1.31637, "lng": 103.80351, "url": "https://www.propertyguru.com.sg/listing/for-rent-leedon-road-500020372", "image": null}, {"id": "500051217", "title": "Tan kim cheng road", "address": "", "price": 27000, "pricePretty": "S$ 27,000 /mo", "listingType": "RENT", "propertyType": "Bungalow House", "propertyTypeCode": "LBUNG", "beds": 5, "baths": 5, "sqft": 4310.0, "lat": 1.322061, "lng": 103.8124069, "url": "https://www.propertyguru.com.sg/listing/for-rent-tan-kim-cheng-road-500051217", "image": null}, {"id": "500034756", "title": "3J East Coast Avenue", "address": "3J East Coast Avenue", "price": 25000, "pricePretty": "S$ 25,000 /mo", "listingType": "RENT", "propertyType": "Corner Terrace", "propertyTypeCode": "CORN", "beds": 5, "baths": 6, "sqft": 2658.0, "lat": 1.3096699, "lng": 103.922472, "url": "https://www.propertyguru.com.sg/listing/for-rent-3j-east-coast-avenue-500034756", "image": null}, {"id": "500054995", "title": "Tan Kim Cheng", "address": "Tan Kim Cheng Road", "price": 25000, "pricePretty": "S$ 25,000 /mo", "listingType": "RENT", "propertyType": "Detached House", "propertyTypeCode": "DETAC", "beds": 5, "baths": 6, "sqft": 4310.0, "lat": 1.32391, "lng": 103.81461, "url": "https://www.propertyguru.com.sg/listing/for-rent-tan-kim-cheng-500054995", "image": null}, {"id": "60166340", "title": "Goodwood Residence", "address": "261 Bukit Timah Road", "price": 22999, "pricePretty": "S$ 22,999 /mo", "listingType": "RENT", "propertyType": "Condominium", "propertyTypeCode": "CONDO", "beds": 4, "baths": 5, "sqft": 3928.0, "lat": 1.3142513, "lng": 103.836042, "url": "https://www.propertyguru.com.sg/listing/for-rent-goodwood-residence-60166340", "image": null}, {"id": "24504448", "title": "New Futura", "address": "16 Leonie Hill Road", "price": 22188, "pricePretty": "S$ 22,188 /mo", "listingType": "RENT", "propertyType": "Condominium", "propertyTypeCode": "CONDO", "beds": 4, "baths": 5, "sqft": 2696.0, "lat": 1.298144, "lng": 103.834135, "url": "https://www.propertyguru.com.sg/listing/for-rent-new-futura-24504448", "image": null}, {"id": "500032342", "title": "3K East Coast Avenue", "address": "East Coast Avenue", "price": 22000, "pricePretty": "S$ 22,000 /mo", "listingType": "RENT", "propertyType": "Terraced House", "propertyTypeCode": "TERRA", "beds": 5, "baths": 7, "sqft": 2015.0, "lat": 1.3096699, "lng": 103.922472, "url": "https://www.propertyguru.com.sg/listing/for-rent-3k-east-coast-avenue-500032342", "image": null}, {"id": "500033613", "title": "The Oliv @ Balmoral", "address": "11C Balmoral Road", "price": 22000, "pricePretty": "S$ 22,000 /mo", "listingType": "RENT", "propertyType": "Apartment", "propertyTypeCode": "APT", "beds": 4, "baths": 3, "sqft": 3337.0, "lat": 1.31497, "lng": 103.83153, "url": "https://www.propertyguru.com.sg/listing/for-rent-the-oliv-balmoral-500033613", "image": null}, {"id": "500054423", "title": "Regency Park", "address": "3 Nathan Road", "price": 21000, "pricePretty": "S$ 21,000 /mo", "listingType": "RENT", "propertyType": "Condominium", "propertyTypeCode": "CONDO", "beds": 4, "baths": 4, "sqft": 3650.0, "lat": 1.29742, "lng": 103.82586, "url": "https://www.propertyguru.com.sg/listing/for-rent-regency-park-500054423", "image": null}, {"id": "24736795", "title": "111 Emerald Hill", "address": "111 Emerald Hill", "price": 20999, "pricePretty": "S$ 20,999 /mo", "listingType": "RENT", "propertyType": "Condominium", "propertyTypeCode": "CONDO", "beds": 4, "baths": 4, "sqft": 4650.0, "lat": 1.305003, "lng": 103.839, "url": "https://www.propertyguru.com.sg/listing/for-rent-111-emerald-hill-24736795", "image": null}, {"id": "500032347", "title": "GCB near King Albert Park", "address": "Yarwood Avenue", "price": 20000, "pricePretty": "S$ 20,000 /mo", "listingType": "RENT", "propertyType": "Good Class Bungalow", "propertyTypeCode": "BUNG", "beds": 6, "baths": 6, "sqft": 10000.0, "lat": 1.34068, "lng": 103.78553, "url": "https://www.propertyguru.com.sg/listing/for-rent-gcb-near-king-albert-park-500032347", "image": null}, {"id": "60179154", "title": "The Orchard Residences", "address": "238 Orchard Boulevard", "price": 19999, "pricePretty": "S$ 19,999 /mo", "listingType": "RENT", "propertyType": "Condominium", "propertyTypeCode": "CONDO", "beds": 4, "baths": 3, "sqft": 2174.0, "lat": 1.304356, "lng": 103.831557, "url": "https://www.propertyguru.com.sg/listing/for-rent-the-orchard-residences-60179154", "image": null}, {"id": "500040734", "title": "Leedon Residence", "address": "6 Leedon Heights", "price": 19800, "pricePretty": "S$ 19,800 /mo", "listingType": "RENT", "propertyType": "Condominium", "propertyTypeCode": "CONDO", "beds": 4, "baths": 4, "sqft": 2670.0, "lat": 1.3146233, "lng": 103.8014557, "url": "https://www.propertyguru.com.sg/listing/for-rent-leedon-residence-500040734", "image": null}, {"id": "24238824", "title": "The Colonnade", "address": "82 Grange Road", "price": 19800, "pricePretty": "S$ 19,800 /mo", "listingType": "RENT", "propertyType": "Condominium", "propertyTypeCode": "CONDO", "beds": 3, "baths": 5, "sqft": 3993.0, "lat": 1.2998425, "lng": 103.827483, "url": "https://www.propertyguru.com.sg/listing/for-rent-the-colonnade-24238824", "image": null}, {"id": "14294222", "title": "The Colonnade", "address": "82 Grange Road", "price": 19600, "pricePretty": "S$ 19,600 /mo", "listingType": "RENT", "propertyType": "Condominium", "propertyTypeCode": "CONDO", "beds": 4, "baths": 5, "sqft": 3617.0, "lat": 1.2998425, "lng": 103.827483, "url": "https://www.propertyguru.com.sg/listing/for-rent-the-colonnade-14294222", "image": null}, {"id": "25566438", "title": "The Colonnade", "address": "82 Grange Road", "price": 19600, "pricePretty": "S$ 19,600 /mo", "listingType": "RENT", "propertyType": "Condominium", "propertyTypeCode": "CONDO", "beds": 4, "baths": 5, "sqft": 3617.0, "lat": 1.2998425, "lng": 103.827483, "url": "https://www.propertyguru.com.sg/listing/for-rent-the-colonnade-25566438", "image": null}, {"id": "60175196", "title": "The Colonnade", "address": "82 Grange Road", "price": 19600, "pricePretty": "S$ 19,600 /mo", "listingType": "RENT", "propertyType": "Condominium", "propertyTypeCode": "CONDO", "beds": 4, "baths": 5, "sqft": 3617.0, "lat": 1.2998425, "lng": 103.827483, "url": "https://www.propertyguru.com.sg/listing/for-rent-the-colonnade-60175196", "image": null}, {"id": "500026788", "title": "Jervois Mansion", "address": "12 Jervois Close", "price": 18000, "pricePretty": "S$ 18,000 /mo", "listingType": "RENT", "propertyType": "Condominium", "propertyTypeCode": "CONDO", "beds": 4, "baths": 3, "sqft": 2110.0, "lat": 1.2929393, "lng": 103.8239637, "url": "https://www.propertyguru.com.sg/listing/for-rent-jervois-mansion-500026788", "image": null}, {"id": "25451080", "title": "Mountbatten Road", "address": "", "price": 18000, "pricePretty": "S$ 18,000 /mo", "listingType": "RENT", "propertyType": "Detached House", "propertyTypeCode": "DETAC", "beds": 6, "baths": 4, "sqft": 6380.0, "lat": 1.30222, "lng": 103.89404, "url": "https://www.propertyguru.com.sg/listing/for-rent-mountbatten-road-25451080", "image": null}, {"id": "24763822", "title": "Boulevard 88", "address": "86 Orchard Boulevard", "price": 16399, "pricePretty": "S$ 16,399 /mo", "listingType": "RENT", "propertyType": "Condominium", "propertyTypeCode": "CONDO", "beds": 3, "baths": 4, "sqft": 1776.0, "lat": 1.30458, "lng": 103.827689, "url": "https://www.propertyguru.com.sg/listing/for-rent-boulevard-88-24763822", "image": null}, {"id": "500031323", "title": "The Peak", "address": "35 Pepys Road", "price": 16000, "pricePretty": "S$ 16,000 /mo", "listingType": "RENT", "propertyType": "Condominium", "propertyTypeCode": "CONDO", "beds": 4, "baths": 5, "sqft": 5500.0, "lat": 1.28003, "lng": 103.79337, "url": "https://www.propertyguru.com.sg/listing/for-rent-the-peak-500031323", "image": null}, {"id": "500039739", "title": "111 Emerald Hill", "address": "111 Emerald Hill", "price": 15800, "pricePretty": "S$ 15,800 /mo", "listingType": "RENT", "propertyType": "Condominium", "propertyTypeCode": "CONDO", "beds": 4, "baths": 4, "sqft": 2500.0, "lat": 1.305003, "lng": 103.839, "url": "https://www.propertyguru.com.sg/listing/for-rent-111-emerald-hill-500039739", "image": null}, {"id": "23608828", "title": "Ardmore II", "address": "1 Ardmore Park", "price": 15800, "pricePretty": "S$ 15,800 /mo", "listingType": "RENT", "propertyType": "Condominium", "propertyTypeCode": "CONDO", "beds": 4, "baths": 3, "sqft": 2024.0, "lat": 1.30956, "lng": 103.82838, "url": "https://www.propertyguru.com.sg/listing/for-rent-ardmore-ii-23608828", "image": null}, {"id": "23723161", "title": "111 Emerald Hill", "address": "111 Emerald Hill", "price": 15800, "pricePretty": "S$ 15,800 /mo", "listingType": "RENT", "propertyType": "Condominium", "propertyTypeCode": "CONDO", "beds": 4, "baths": 4, "sqft": 2497.0, "lat": 1.305003, "lng": 103.839, "url": "https://www.propertyguru.com.sg/listing/for-rent-111-emerald-hill-23723161", "image": null}, {"id": "21517669", "title": "111 Emerald Hill", "address": "111 Emerald Hill", "price": 15800, "pricePretty": "S$ 15,800 /mo", "listingType": "RENT", "propertyType": "Condominium", "propertyTypeCode": "CONDO", "beds": 4, "baths": 4, "sqft": 2498.0, "lat": 1.305003, "lng": 103.839, "url": "https://www.propertyguru.com.sg/listing/for-rent-111-emerald-hill-21517669", "image": null}, {"id": "500044250", "title": "111 Emerald Hill", "address": "111 Emerald Hill", "price": 15800, "pricePretty": "S$ 15,800 /mo", "listingType": "RENT", "propertyType": "Condominium", "propertyTypeCode": "CONDO", "beds": 4, "baths": 4, "sqft": 2500.0, "lat": 1.305003, "lng": 103.839, "url": "https://www.propertyguru.com.sg/listing/for-rent-111-emerald-hill-500044250", "image": null}, {"id": "25399368", "title": "RENOVATED Corner Conservation House in Katong!", "address": "Koon Seng Road", "price": 15500, "pricePretty": "S$ 15,500 /mo", "listingType": "RENT", "propertyType": "Conservation House", "propertyTypeCode": "CON", "beds": 5, "baths": 5, "sqft": 4198.0, "lat": 1.31305, "lng": 103.90602, "url": "https://www.propertyguru.com.sg/listing/for-rent-renovated-corner-conservation-house-in-katong-25399368", "image": null}, {"id": "20531087", "title": "The Colonnade", "address": "82 Grange Road", "price": 15000, "pricePretty": "S$ 15,000 /mo", "listingType": "RENT", "propertyType": "Condominium", "propertyTypeCode": "CONDO", "beds": 2, "baths": 4, "sqft": 2882.0, "lat": 1.2998425, "lng": 103.827483, "url": "https://www.propertyguru.com.sg/listing/for-rent-the-colonnade-20531087", "image": null}, {"id": "25404486", "title": "The Colonnade", "address": "82 Grange Road", "price": 15000, "pricePretty": "S$ 15,000 /mo", "listingType": "RENT", "propertyType": "Condominium", "propertyTypeCode": "CONDO", "beds": 2, "baths": 4, "sqft": 2883.0, "lat": 1.2998425, "lng": 103.827483, "url": "https://www.propertyguru.com.sg/listing/for-rent-the-colonnade-25404486", "image": null}, {"id": "500042616", "title": "Haig Lane", "address": "", "price": 15000, "pricePretty": "S$ 15,000 /mo", "listingType": "RENT", "propertyType": "Semi-Detached House", "propertyTypeCode": "SEMI", "beds": 6, "baths": 6, "sqft": 3882.0, "lat": 1.31091, "lng": 103.9009, "url": "https://www.propertyguru.com.sg/listing/for-rent-haig-lane-500042616", "image": null}, {"id": "60217833", "title": "The Colonnade", "address": "82 Grange Road", "price": 15000, "pricePretty": "S$ 15,000 /mo", "listingType": "RENT", "propertyType": "Condominium", "propertyTypeCode": "CONDO", "beds": 3, "baths": 4, "sqft": 2883.0, "lat": 1.2998425, "lng": 103.827483, "url": "https://www.propertyguru.com.sg/listing/for-rent-the-colonnade-60217833", "image": null}, {"id": "500033854", "title": "Upper Bukit Timah ✧ Newly Renovated Semi-Detached", "address": "Sian Tuan Avenue, Hua Guan Avenue, Yarwood Avenue", "price": 14999, "pricePretty": "S$ 14,999 /mo", "listingType": "RENT", "propertyType": "Semi-Detached House", "propertyTypeCode": "SEMI", "beds": 5, "baths": 6, "sqft": 4000.0, "lat": 1.34328, "lng": 103.78705, "url": "https://www.propertyguru.com.sg/listing/for-rent-upper-bukit-timah-newly-renovated-semi-detached-500033854", "image": null}, {"id": "23683847", "title": "New Futura", "address": "18 Leonie Hill Road", "price": 14500, "pricePretty": "S$ 14,500 /mo", "listingType": "RENT", "propertyType": "Condominium", "propertyTypeCode": "CONDO", "beds": 3, "baths": 4, "sqft": 1830.0, "lat": 1.298144, "lng": 103.834135, "url": "https://www.propertyguru.com.sg/listing/for-rent-new-futura-23683847", "image": null}, {"id": "19113616", "title": "Ardmore II", "address": "2 Ardmore Park", "price": 14200, "pricePretty": "S$ 14,200 /mo", "listingType": "RENT", "propertyType": "Condominium", "propertyTypeCode": "CONDO", "beds": 4, "baths": 4, "sqft": 2024.0, "lat": 1.30956, "lng": 103.82838, "url": "https://www.propertyguru.com.sg/listing/for-rent-ardmore-ii-19113616", "image": null}, {"id": "60226573", "title": "Jervois Mansion", "address": "4 Jervois Close", "price": 14000, "pricePretty": "S$ 14,000 /mo", "listingType": "RENT", "propertyType": "Condominium", "propertyTypeCode": "CONDO", "beds": 4, "baths": 4, "sqft": 1722.0, "lat": 1.2931389, "lng": 103.824015, "url": "https://www.propertyguru.com.sg/listing/for-rent-jervois-mansion-60226573", "image": null}, {"id": "500035931", "title": "Klimt Cairnhill", "address": "71 Cairnhill Road", "price": 14000, "pricePretty": "S$ 14,000 /mo", "listingType": "RENT", "propertyType": "Condominium", "propertyTypeCode": "CONDO", "beds": 3, "baths": 3, "sqft": 1496.0, "lat": 1.309389267670262, "lng": 103.83605432509555, "url": "https://www.propertyguru.com.sg/listing/for-rent-klimt-cairnhill-500035931", "image": null}, {"id": "500047059", "title": "Jalan Tanjong. Terrace 6000sf Build", "address": "Jln Tanjong", "price": 14000, "pricePretty": "S$ 14,000 /mo", "listingType": "RENT", "propertyType": "Terraced House", "propertyTypeCode": "TERRA", "beds": 4, "baths": 4, "sqft": 2200.0, "lat": 1.33183, "lng": 103.94518, "url": "https://www.propertyguru.com.sg/listing/for-rent-jalan-tanjong-terrace-6000sf-build-500047059", "image": null}, {"id": "60225784", "title": "Ardmore 3", "address": "3 Ardmore Park", "price": 13800, "pricePretty": "S$ 13,800 /mo", "listingType": "RENT", "propertyType": "Condominium", "propertyTypeCode": "CONDO", "beds": 3, "baths": 3, "sqft": 1744.0, "lat": 1.308378, "lng": 103.828571, "url": "https://www.propertyguru.com.sg/listing/for-rent-ardmore-3-60225784", "image": null}, {"id": "20711174", "title": "Live Like Taylor Swift's Mom!In An Old World SG Bungalow With Lots of Outdoor Space!Carpe Diem!", "address": "17 Sunset Drive", "price": 13500, "pricePretty": "S$ 13,500 /mo", "listingType": "RENT", "propertyType": "Bungalow House", "propertyTypeCode": "LBUNG", "beds": 4, "baths": 4, "sqft": 7000.0, "lat": 1.3253172, "lng": 103.7666853, "url": "https://www.propertyguru.com.sg/listing/for-rent-live-like-taylor-swift-s-mom-in-an-old-world-sg-bungalow-with-lots-of-outdoor-space-carpe-diem-20711174", "image": null}, {"id": "24975156", "title": "Clementi Park", "address": "010101 Sunset Drive", "price": 13500, "pricePretty": "S$ 13,500 /mo", "listingType": "RENT", "propertyType": "Bungalow House", "propertyTypeCode": "LBUNG", "beds": 5, "baths": 4, "sqft": 7000.0, "lat": 1.3299, "lng": 103.7664, "url": "https://www.propertyguru.com.sg/listing/for-rent-clementi-park-24975156", "image": null}, {"id": "19072167", "title": "Balmoral Park Townhouse with Pool", "address": "Balmoral Park", "price": 13000, "pricePretty": "S$ 13,000 /mo", "listingType": "RENT", "propertyType": "Town House", "propertyTypeCode": "TOWN", "beds": 4, "baths": 4, "sqft": 2000.0, "lat": 1.315, "lng": 103.828, "url": "https://www.propertyguru.com.sg/listing/for-rent-balmoral-park-townhouse-with-pool-19072167", "image": null}, {"id": "500031042", "title": "vanda drive", "address": "Vanda Drive, Vanda Road, Vanda Crescent, Dunearn Road, Bukit Timah", "price": 12800, "pricePretty": "S$ 12,800 /mo", "listingType": "RENT", "propertyType": "Semi-Detached House", "propertyTypeCode": "SEMI", "beds": 5, "baths": 4, "sqft": 4584.0, "lat": 1.332979, "lng": 103.800458, "url": "https://www.propertyguru.com.sg/listing/for-rent-vanda-drive-500031042", "image": null}, {"id": "500041814", "title": "Orchid Village", "address": "Vanda Drive", "price": 12800, "pricePretty": "S$ 12,800 /mo", "listingType": "RENT", "propertyType": "Semi-Detached House", "propertyTypeCode": "SEMI", "beds": 5, "baths": 4, "sqft": 4585.0, "lat": 1.332976173170623, "lng": 103.80030221893624, "url": "https://www.propertyguru.com.sg/listing/for-rent-orchid-village-500041814", "image": null}, {"id": "60203528", "title": "Woo Mun Chew road", "address": "Woo Mon Chew", "price": 12500, "pricePretty": "S$ 12,500 /mo", "listingType": "RENT", "propertyType": "Semi-Detached House", "propertyTypeCode": "SEMI", "beds": 5, "baths": 5, "sqft": 3880.0, "lat": 1.31775, "lng": 103.93169, "url": "https://www.propertyguru.com.sg/listing/for-rent-woo-mun-chew-road-60203528", "image": null}, {"id": "22964209", "title": "Kensington Park", "address": "8 Kensington Park Drive", "price": 12000, "pricePretty": "S$ 12,000 /mo", "listingType": "RENT", "propertyType": "Condominium", "propertyTypeCode": "CONDO", "beds": 4, "baths": 6, "sqft": 3641.0, "lat": 1.367133, "lng": 103.86842, "url": "https://www.propertyguru.com.sg/listing/for-rent-kensington-park-22964209", "image": null}, {"id": "23970677", "title": "Orchid Village", "address": "Vanda Road", "price": 12000, "pricePretty": "S$ 12,000 /mo", "listingType": "RENT", "propertyType": "Semi-Detached House", "propertyTypeCode": "SEMI", "beds": 5, "baths": 4, "sqft": 4000.0, "lat": 1.333245, "lng": 103.799238, "url": "https://www.propertyguru.com.sg/listing/for-rent-orchid-village-23970677", "image": null}, {"id": "60220146", "title": "Dunearn road", "address": "Dunearn Road", "price": 12000, "pricePretty": "S$ 12,000 /mo", "listingType": "RENT", "propertyType": "Semi-Detached House", "propertyTypeCode": "SEMI", "beds": 5, "baths": 3, "sqft": 2624.0, "lat": 1.33719, "lng": 103.78823, "url": "https://www.propertyguru.com.sg/listing/for-rent-dunearn-road-60220146", "image": null}, {"id": "24760664", "title": "Marigold Drive Detached House", "address": "Marigold Drive/Upper Thomson Road/Jasmine Road", "price": 11900, "pricePretty": "S$ 11,900 /mo", "listingType": "RENT", "propertyType": "Detached House", "propertyTypeCode": "DETAC", "beds": 4, "baths": 4, "sqft": 3600.0, "lat": 1.353834, "lng": 103.828289, "url": "https://www.propertyguru.com.sg/listing/for-rent-marigold-drive-detached-house-24760664", "image": null}, {"id": "22115110", "title": "Orchard Scotts", "address": "7 Anthony Road", "price": 11500, "pricePretty": "S$ 11,500 /mo", "listingType": "RENT", "propertyType": "Condominium", "propertyTypeCode": "CONDO", "beds": 4, "baths": 5, "sqft": 2238.0, "lat": 1.309809, "lng": 103.83883, "url": "https://www.propertyguru.com.sg/listing/for-rent-orchard-scotts-22115110", "image": null}, {"id": "23804164", "title": "Orchard Scotts", "address": "7 Anthony Road", "price": 11300, "pricePretty": "S$ 11,300 /mo", "listingType": "RENT", "propertyType": "Condominium", "propertyTypeCode": "CONDO", "beds": 3, "baths": 4, "sqft": 2282.0, "lat": 1.309809, "lng": 103.83883, "url": "https://www.propertyguru.com.sg/listing/for-rent-orchard-scotts-23804164", "image": null}, {"id": "21143624", "title": "DUO Residences", "address": "1 Fraser Street", "price": 11300, "pricePretty": "S$ 11,300 /mo", "listingType": "RENT", "propertyType": "Apartment", "propertyTypeCode": "APT", "beds": 3, "baths": 2, "sqft": 1528.0, "lat": 1.2990433098484, "lng": 103.85802169577, "url": "https://www.propertyguru.com.sg/listing/for-rent-duo-residences-21143624", "image": null}, {"id": "60221975", "title": "Lentor Vale", "address": "Lentor Vale", "price": 10999, "pricePretty": "S$ 10,999 /mo", "listingType": "RENT", "propertyType": "Semi-Detached House", "propertyTypeCode": "SEMI", "beds": 5, "baths": 6, "sqft": 6152.0, "lat": 1.39106, "lng": 103.8377, "url": "https://www.propertyguru.com.sg/listing/for-rent-lentor-vale-60221975", "image": null}, {"id": "60228282", "title": "Island Country Villas", "address": "Casuarina Walk", "price": 10880, "pricePretty": "S$ 10,880 /mo", "listingType": "RENT", "propertyType": "Semi-Detached House", "propertyTypeCode": "SEMI", "beds": 5, "baths": 4, "sqft": 2411.0, "lat": 1.37819, "lng": 103.8289, "url": "https://www.propertyguru.com.sg/listing/for-rent-island-country-villas-60228282", "image": null}, {"id": "25337129", "title": "Greenwood Ave", "address": "", "price": 10800, "pricePretty": "S$ 10,800 /mo", "listingType": "RENT", "propertyType": "Semi-Detached House", "propertyTypeCode": "SEMI", "beds": 4, "baths": 4, "sqft": 2500.0, "lat": 1.33348, "lng": 103.80829, "url": "https://www.propertyguru.com.sg/listing/for-rent-greenwood-ave-25337129", "image": null}, {"id": "60078256", "title": "The Greenwood", "address": "203 Greenwood Avenue", "price": 10800, "pricePretty": "S$ 10,800 /mo", "listingType": "RENT", "propertyType": "Terraced House", "propertyTypeCode": "TERRA", "beds": 5, "baths": 5, "sqft": 3015.0, "lat": 1.33911, "lng": 103.80702, "url": "https://www.propertyguru.com.sg/listing/for-rent-the-greenwood-60078256", "image": null}, {"id": "60216924", "title": "Fernhill Court Condo", "address": "60 Fernhill Road", "price": 10500, "pricePretty": "S$ 10,500 /mo", "listingType": "RENT", "propertyType": "Condominium", "propertyTypeCode": "CONDO", "beds": 3, "baths": 4, "sqft": 2486.0, "lat": 1.313786, "lng": 103.823419, "url": "https://www.propertyguru.com.sg/listing/for-rent-fernhill-court-condo-60216924", "image": null}, {"id": "500050073", "title": "Upper Thomson", "address": "Upper thomson", "price": 10500, "pricePretty": "S$ 10,500 /mo", "listingType": "RENT", "propertyType": "Semi-Detached House", "propertyTypeCode": "SEMI", "beds": 4, "baths": 4, "sqft": 2400.0, "lat": 1.37276, "lng": 103.83047, "url": "https://www.propertyguru.com.sg/listing/for-rent-upper-thomson-500050073", "image": null}, {"id": "500026825", "title": "Jervois Mansion", "address": "4 Jervois Close", "price": 10500, "pricePretty": "S$ 10,500 /mo", "listingType": "RENT", "propertyType": "Condominium", "propertyTypeCode": "CONDO", "beds": 3, "baths": 2, "sqft": 1249.0, "lat": 1.2931389, "lng": 103.824015, "url": "https://www.propertyguru.com.sg/listing/for-rent-jervois-mansion-500026825", "image": null}, {"id": "500034824", "title": "Queens", "address": "10 Stirling Road", "price": 10000, "pricePretty": "S$ 10,000 /mo", "listingType": "RENT", "propertyType": "Condominium", "propertyTypeCode": "CONDO", "beds": 4, "baths": 4, "sqft": 2390.0, "lat": 1.292918, "lng": 103.806493, "url": "https://www.propertyguru.com.sg/listing/for-rent-queens-500034824", "image": null}, {"id": "24418050", "title": "Riviere", "address": "1 Jiak Kim Street", "price": 10000, "pricePretty": "S$ 10,000 /mo", "listingType": "RENT", "propertyType": "Condominium", "propertyTypeCode": "CONDO", "beds": 3, "baths": 2, "sqft": 1173.0, "lat": 1.291457, "lng": 103.835004, "url": "https://www.propertyguru.com.sg/listing/for-rent-riviere-24418050", "image": null}, {"id": "24844016", "title": "The Metropolitan Condominium", "address": "8 Alexandra View", "price": 9900, "pricePretty": "S$ 9,900 /mo", "listingType": "RENT", "propertyType": "Condominium", "propertyTypeCode": "CONDO", "beds": 4, "baths": 4, "sqft": 1733.0, "lat": 1.290481, "lng": 103.81602, "url": "https://www.propertyguru.com.sg/listing/for-rent-the-metropolitan-condominium-24844016", "image": null}, {"id": "500057179", "title": "Glentrees", "address": "11A Mount Sinai Lane", "price": 9900, "pricePretty": "S$ 9,900 /mo", "listingType": "RENT", "propertyType": "Condominium", "propertyTypeCode": "CONDO", "beds": 4, "baths": 4, "sqft": 3671.0, "lat": 1.3158925, "lng": 103.7850998, "url": "https://www.propertyguru.com.sg/listing/for-rent-glentrees-500057179", "image": null}, {"id": "24448465", "title": "Riviere", "address": "1 Jiak Kim Street", "price": 9800, "pricePretty": "S$ 9,800 /mo", "listingType": "RENT", "propertyType": "Condominium", "propertyTypeCode": "CONDO", "beds": 3, "baths": 2, "sqft": 1141.0, "lat": 1.291457, "lng": 103.835004, "url": "https://www.propertyguru.com.sg/listing/for-rent-riviere-24448465", "image": null}, {"id": "500054901", "title": "The Shelford", "address": "", "price": 9800, "pricePretty": "S$ 9,800 /mo", "listingType": "RENT", "propertyType": "Condominium", "propertyTypeCode": "CONDO", "beds": 3, "baths": 3, "sqft": 1788.0, "lat": 1.325224, "lng": 103.810967, "url": "https://www.propertyguru.com.sg/listing/for-rent-the-shelford-500054901", "image": null}, {"id": "22322708", "title": "Palm Spring", "address": "16 Ewe Boon Road", "price": 9200, "pricePretty": "S$ 9,200 /mo", "listingType": "RENT", "propertyType": "Condominium", "propertyTypeCode": "CONDO", "beds": 4, "baths": 5, "sqft": 2100.0, "lat": 1.316798, "lng": 103.831568, "url": "https://www.propertyguru.com.sg/listing/for-rent-palm-spring-22322708", "image": null}, {"id": "23620990", "title": "Kim Yam conversation house", "address": "Kim Yam Road", "price": 9100, "pricePretty": "S$ 9,100 /mo", "listingType": "RENT", "propertyType": "Conservation House", "propertyTypeCode": "CON", "beds": 3, "baths": 3, "sqft": 1100.0, "lat": 1.293137, "lng": 103.839864, "url": "https://www.propertyguru.com.sg/listing/for-rent-kim-yam-conversation-house-23620990", "image": null}, {"id": "500014331", "title": "One Devonshire", "address": "1 Devonshire Road", "price": 9000, "pricePretty": "S$ 9,000 /mo", "listingType": "RENT", "propertyType": "Condominium", "propertyTypeCode": "CONDO", "beds": 3, "baths": 3, "sqft": 1216.0, "lat": 1.298958, "lng": 103.837122, "url": "https://www.propertyguru.com.sg/listing/for-rent-one-devonshire-500014331", "image": null}, {"id": "60223856", "title": "The Interlace", "address": "180 Depot Road", "price": 9000, "pricePretty": "S$ 9,000 /mo", "listingType": "RENT", "propertyType": "Condominium", "propertyTypeCode": "CONDO", "beds": 3, "baths": 3, "sqft": 1615.0, "lat": 1.282573, "lng": 103.804304, "url": "https://www.propertyguru.com.sg/listing/for-rent-the-interlace-60223856", "image": null}, {"id": "60201932", "title": "Lentor Modern", "address": "Lentor Central", "price": 8800, "pricePretty": "S$ 8,800 /mo", "listingType": "RENT", "propertyType": "Condominium", "propertyTypeCode": "CONDO", "beds": 4, "baths": 3, "sqft": 1529.0, "lat": 1.38568, "lng": 103.83465, "url": "https://www.propertyguru.com.sg/listing/for-rent-lentor-modern-60201932", "image": null}, {"id": "24460221", "title": "Latitude", "address": "35 Jalan Mutiara", "price": 8700, "pricePretty": "S$ 8,700 /mo", "listingType": "RENT", "propertyType": "Condominium", "propertyTypeCode": "CONDO", "beds": 2, "baths": 3, "sqft": 1324.0, "lat": 1.296365, "lng": 103.828397, "url": "https://www.propertyguru.com.sg/listing/for-rent-latitude-24460221", "image": null}, {"id": "20779065", "title": "Cairnhill Nine", "address": "9 Cairnhill Road", "price": 8500, "pricePretty": "S$ 8,500 /mo", "listingType": "RENT", "propertyType": "Condominium", "propertyTypeCode": "CONDO", "beds": 2, "baths": 2, "sqft": 1055.0, "lat": 1.3043491, "lng": 103.8373378, "url": "https://www.propertyguru.com.sg/listing/for-rent-cairnhill-nine-20779065", "image": null}, {"id": "500048961", "title": "Latitude", "address": "31 Jalan Mutiara", "price": 8500, "pricePretty": "S$ 8,500 /mo", "listingType": "RENT", "propertyType": "Condominium", "propertyTypeCode": "CONDO", "beds": 2, "baths": 3, "sqft": 1324.0, "lat": 1.296365, "lng": 103.828397, "url": "https://www.propertyguru.com.sg/listing/for-rent-latitude-500048961", "image": null}, {"id": "19116267", "title": "Spring Grove", "address": "53A Grange Road", "price": 8500, "pricePretty": "S$ 8,500 /mo", "listingType": "RENT", "propertyType": "Condominium", "propertyTypeCode": "CONDO", "beds": 3, "baths": 3, "sqft": 1389.0, "lat": 1.297729, "lng": 103.827228, "url": "https://www.propertyguru.com.sg/listing/for-rent-spring-grove-19116267", "image": null}, {"id": "500039670", "title": "Pandan Valley", "address": "1 Pandan Valley", "price": 8500, "pricePretty": "S$ 8,500 /mo", "listingType": "RENT", "propertyType": "Condominium", "propertyTypeCode": "CONDO", "beds": 4, "baths": 3, "sqft": 3272.0, "lat": 1.31997, "lng": 103.77872, "url": "https://www.propertyguru.com.sg/listing/for-rent-pandan-valley-500039670", "image": null}, {"id": "21317239", "title": "Pasir Panjang Hill", "address": "Pasir Panjang Hill", "price": 8300, "pricePretty": "S$ 8,300 /mo", "listingType": "RENT", "propertyType": "Town House", "propertyTypeCode": "TOWN", "beds": 4, "baths": 5, "sqft": 2000.0, "lat": 1.28185, "lng": 103.786208, "url": "https://www.propertyguru.com.sg/listing/for-rent-pasir-panjang-hill-21317239", "image": null}, {"id": "500002212", "title": "Allsworth Park", "address": "361 Holland Road", "price": 8200, "pricePretty": "S$ 8,200 /mo", "listingType": "RENT", "propertyType": "Condominium", "propertyTypeCode": "CONDO", "beds": 3, "baths": 3, "sqft": 1959.0, "lat": 1.319539, "lng": 103.780463, "url": "https://www.propertyguru.com.sg/listing/for-rent-allsworth-park-500002212", "image": null}, {"id": "23659271", "title": "Park Natura", "address": "35 Bukit Batok East Avenue 6", "price": 8000, "pricePretty": "S$ 8,000 /mo", "listingType": "RENT", "propertyType": "Condominium", "propertyTypeCode": "CONDO", "beds": 4, "baths": 4, "sqft": 2863.0, "lat": 1.346217, "lng": 103.765573, "url": "https://www.propertyguru.com.sg/listing/for-rent-park-natura-23659271", "image": null}, {"id": "20931469", "title": "Westpoint Condominium", "address": "3 Pepys Road", "price": 8000, "pricePretty": "S$ 8,000 /mo", "listingType": "RENT", "propertyType": "Condominium", "propertyTypeCode": "CONDO", "beds": 3, "baths": 4, "sqft": 2519.0, "lat": 1.276311, "lng": 103.793398, "url": "https://www.propertyguru.com.sg/listing/for-rent-westpoint-condominium-20931469", "image": null}, {"id": "500051305", "title": "8 Saint Thomas", "address": "8 Saint Thomas Walk", "price": 7997, "pricePretty": "S$ 7,997 /mo", "listingType": "RENT", "propertyType": "Condominium", "propertyTypeCode": "CONDO", "beds": 2, "baths": 2, "sqft": 1044.0, "lat": 1.29614, "lng": 103.83629, "url": "https://www.propertyguru.com.sg/listing/for-rent-8-saint-thomas-500051305", "image": null}, {"id": "23048706", "title": "The Trizon", "address": "8 Ridgewood Close", "price": 7800, "pricePretty": "S$ 7,800 /mo", "listingType": "RENT", "propertyType": "Condominium", "propertyTypeCode": "CONDO", "beds": 3, "baths": 2, "sqft": 1550.0, "lat": 1.3164, "lng": 103.7781, "url": "https://www.propertyguru.com.sg/listing/for-rent-the-trizon-23048706", "image": null}, {"id": "60210101", "title": "The Regency at Tiong Bahru", "address": "36 Chay Yan Street", "price": 7800, "pricePretty": "S$ 7,800 /mo", "listingType": "RENT", "propertyType": "Condominium", "propertyTypeCode": "CONDO", "beds": 3, "baths": 3, "sqft": 1281.0, "lat": 1.282656, "lng": 103.829784, "url": "https://www.propertyguru.com.sg/listing/for-rent-the-regency-at-tiong-bahru-60210101", "image": null}, {"id": "60006750", "title": "The Regency at Tiong Bahru", "address": "36 Chay Yan Street", "price": 7800, "pricePretty": "S$ 7,800 /mo", "listingType": "RENT", "propertyType": "Condominium", "propertyTypeCode": "CONDO", "beds": 3, "baths": 3, "sqft": 1270.0, "lat": 1.282656, "lng": 103.829784, "url": "https://www.propertyguru.com.sg/listing/for-rent-the-regency-at-tiong-bahru-60006750", "image": null}, {"id": "60226816", "title": "The Landmark", "address": "173 Chin Swee Road", "price": 7800, "pricePretty": "S$ 7,800 /mo", "listingType": "RENT", "propertyType": "Condominium", "propertyTypeCode": "CONDO", "beds": 3, "baths": 2, "sqft": 1076.0, "lat": 1.2863659, "lng": 103.839303, "url": "https://www.propertyguru.com.sg/listing/for-rent-the-landmark-60226816", "image": null}, {"id": "25540037", "title": "Chancery Court", "address": "36F Dunearn Road", "price": 7600, "pricePretty": "S$ 7,600 /mo", "listingType": "RENT", "propertyType": "Condominium", "propertyTypeCode": "CONDO", "beds": 3, "baths": 3, "sqft": 2271.0, "lat": 1.316158, "lng": 103.837775, "url": "https://www.propertyguru.com.sg/listing/for-rent-chancery-court-25540037", "image": null}, {"id": "60209825", "title": "AMO Residence", "address": "21 Ang Mo Kio Rise", "price": 7500, "pricePretty": "S$ 7,500 /mo", "listingType": "RENT", "propertyType": "Condominium", "propertyTypeCode": "CONDO", "beds": 4, "baths": 3, "sqft": 1292.0, "lat": 1.36894, "lng": 103.83291, "url": "https://www.propertyguru.com.sg/listing/for-rent-amo-residence-60209825", "image": null}, {"id": "60044803", "title": "Marina One Residences", "address": "21 Marina Way", "price": 7500, "pricePretty": "S$ 7,500 /mo", "listingType": "RENT", "propertyType": "Condominium", "propertyTypeCode": "CONDO", "beds": 2, "baths": 2, "sqft": 1130.0, "lat": 1.2772971656733, "lng": 103.85331021321, "url": "https://www.propertyguru.com.sg/listing/for-rent-marina-one-residences-60044803", "image": null}, {"id": "21780425", "title": "Urban Suites @ Hullet Road", "address": "1 Hullet Road", "price": 7500, "pricePretty": "S$ 7,500 /mo", "listingType": "RENT", "propertyType": "Condominium", "propertyTypeCode": "CONDO", "beds": 2, "baths": 2, "sqft": 1044.0, "lat": 1.303705, "lng": 103.838143, "url": "https://www.propertyguru.com.sg/listing/for-rent-urban-suites-hullet-road-21780425", "image": null}, {"id": "24965087", "title": "The Metz", "address": "83 Devonshire Road", "price": 7500, "pricePretty": "S$ 7,500 /mo", "listingType": "RENT", "propertyType": "Condominium", "propertyTypeCode": "CONDO", "beds": 2, "baths": 2, "sqft": 1055.0, "lat": 1.299323, "lng": 103.837222, "url": "https://www.propertyguru.com.sg/listing/for-rent-the-metz-24965087", "image": null}, {"id": "19935586", "title": "Allsworth Park", "address": "361 Holland Road", "price": 7500, "pricePretty": "S$ 7,500 /mo", "listingType": "RENT", "propertyType": "Condominium", "propertyTypeCode": "CONDO", "beds": 3, "baths": 4, "sqft": 1959.0, "lat": 1.319539, "lng": 103.780463, "url": "https://www.propertyguru.com.sg/listing/for-rent-allsworth-park-19935586", "image": null}, {"id": "60224044", "title": "Tembusu Grand", "address": "92 Jalan Tembusu", "price": 7500, "pricePretty": "S$ 7,500 /mo", "listingType": "RENT", "propertyType": "Condominium", "propertyTypeCode": "CONDO", "beds": 3, "baths": 2, "sqft": 1173.0, "lat": 1.3047857709265736, "lng": 103.8965626423245, "url": "https://www.propertyguru.com.sg/listing/for-rent-tembusu-grand-60224044", "image": null}, {"id": "60227576", "title": "The Cascadia", "address": "941 Bukit Timah Road", "price": 7500, "pricePretty": "S$ 7,500 /mo", "listingType": "RENT", "propertyType": "Condominium", "propertyTypeCode": "CONDO", "beds": 4, "baths": 4, "sqft": 1506.0, "lat": 1.333857, "lng": 103.787594, "url": "https://www.propertyguru.com.sg/listing/for-rent-the-cascadia-60227576", "image": null}, {"id": "500029826", "title": "Tembusu Grand", "address": "96 Jalan Tembusu", "price": 7400, "pricePretty": "S$ 7,400 /mo", "listingType": "RENT", "propertyType": "Condominium", "propertyTypeCode": "CONDO", "beds": 3, "baths": 2, "sqft": 1173.0, "lat": 1.3047857709265736, "lng": 103.8965626423245, "url": "https://www.propertyguru.com.sg/listing/for-rent-tembusu-grand-500029826", "image": null}, {"id": "500040124", "title": "The Atria at Meyer", "address": "61 Meyer Road", "price": 7200, "pricePretty": "S$ 7,200 /mo", "listingType": "RENT", "propertyType": "Condominium", "propertyTypeCode": "CONDO", "beds": 3, "baths": 3, "sqft": 1474.0, "lat": 1.296794, "lng": 103.889242, "url": "https://www.propertyguru.com.sg/listing/for-rent-the-atria-at-meyer-500040124", "image": null}, {"id": "500052599", "title": "One North Bridge", "address": "1 North Bridge Road", "price": 7200, "pricePretty": "S$ 7,200 /mo", "listingType": "RENT", "propertyType": "Apartment", "propertyTypeCode": "APT", "beds": 2, "baths": 1, "sqft": 667.0, "lat": 1.290034, "lng": 103.848893, "url": "https://www.propertyguru.com.sg/listing/for-rent-one-north-bridge-500052599", "image": null}, {"id": "60227316", "title": "Tembusu Grand", "address": "94 Jalan Tembusu", "price": 7200, "pricePretty": "S$ 7,200 /mo", "listingType": "RENT", "propertyType": "Condominium", "propertyTypeCode": "CONDO", "beds": 3, "baths": 3, "sqft": 1173.0, "lat": 1.3047857709265736, "lng": 103.8965626423245, "url": "https://www.propertyguru.com.sg/listing/for-rent-tembusu-grand-60227316", "image": null}, {"id": "500041412", "title": "Tembusu Grand", "address": "94 Jalan Tembusu", "price": 7000, "pricePretty": "S$ 7,000 /mo", "listingType": "RENT", "propertyType": "Condominium", "propertyTypeCode": "CONDO", "beds": 3, "baths": 2, "sqft": 1173.0, "lat": 1.3047857709265736, "lng": 103.8965626423245, "url": "https://www.propertyguru.com.sg/listing/for-rent-tembusu-grand-500041412", "image": null}, {"id": "23343352", "title": "Townerville", "address": "McNair Road", "price": 7000, "pricePretty": "S$ 7,000 /mo", "listingType": "RENT", "propertyType": "Conservation House", "propertyTypeCode": "CON", "beds": 3, "baths": 2, "sqft": 2424.0, "lat": 1.327205, "lng": 103.863585, "url": "https://www.propertyguru.com.sg/listing/for-rent-townerville-23343352", "image": null}, {"id": "60223350", "title": "Tembusu Grand", "address": "98 Jalan Tembusu", "price": 7000, "pricePretty": "S$ 7,000 /mo", "listingType": "RENT", "propertyType": "Condominium", "propertyTypeCode": "CONDO", "beds": 3, "baths": 3, "sqft": 1173.0, "lat": 1.3047857709265736, "lng": 103.8965626423245, "url": "https://www.propertyguru.com.sg/listing/for-rent-tembusu-grand-60223350", "image": null}, {"id": "500029032", "title": "Pavilion 11", "address": "25 Akyab Road", "price": 7000, "pricePretty": "S$ 7,000 /mo", "listingType": "RENT", "propertyType": "Condominium", "propertyTypeCode": "CONDO", "beds": 3, "baths": 3, "sqft": 1485.0, "lat": 1.32437, "lng": 103.848479, "url": "https://www.propertyguru.com.sg/listing/for-rent-pavilion-11-500029032", "image": null}, {"id": "20623159", "title": "Cluny Park Residence", "address": "99 Cluny Park Road", "price": 7000, "pricePretty": "S$ 7,000 /mo", "listingType": "RENT", "propertyType": "Condominium", "propertyTypeCode": "CONDO", "beds": 2, "baths": 2, "sqft": 840.0, "lat": 1.3219574512275, "lng": 103.81393572936, "url": "https://www.propertyguru.com.sg/listing/for-rent-cluny-park-residence-20623159", "image": null}, {"id": "60177102", "title": "One Bernam", "address": "1 Bernam Street", "price": 7000, "pricePretty": "S$ 7,000 /mo", "listingType": "RENT", "propertyType": "Condominium", "propertyTypeCode": "CONDO", "beds": 2, "baths": 1, "sqft": 732.0, "lat": 1.2735245732721454, "lng": 103.84365640636763, "url": "https://www.propertyguru.com.sg/listing/for-rent-one-bernam-60177102", "image": null}, {"id": "500038804", "title": "Martin Modern", "address": "10 Martin Place", "price": 6900, "pricePretty": "S$ 6,900 /mo", "listingType": "RENT", "propertyType": "Apartment", "propertyTypeCode": "APT", "beds": 2, "baths": 2, "sqft": 764.0, "lat": 1.293977, "lng": 103.8388852, "url": "https://www.propertyguru.com.sg/listing/for-rent-martin-modern-500038804", "image": null}, {"id": "500052825", "title": "Tembusu Grand", "address": "94 Jalan Tembusu", "price": 6900, "pricePretty": "S$ 6,900 /mo", "listingType": "RENT", "propertyType": "Condominium", "propertyTypeCode": "CONDO", "beds": 3, "baths": 2, "sqft": 990.0, "lat": 1.3047857709265736, "lng": 103.8965626423245, "url": "https://www.propertyguru.com.sg/listing/for-rent-tembusu-grand-500052825", "image": null}, {"id": "25577157", "title": "Chancery Court", "address": "36C Dunearn Road", "price": 6900, "pricePretty": "S$ 6,900 /mo", "listingType": "RENT", "propertyType": "Condominium", "propertyTypeCode": "CONDO", "beds": 3, "baths": 3, "sqft": 2034.0, "lat": 1.316158, "lng": 103.837775, "url": "https://www.propertyguru.com.sg/listing/for-rent-chancery-court-25577157", "image": null}, {"id": "500057993", "title": "J Gateway", "address": "2 Gateway Drive", "price": 6700, "pricePretty": "S$ 6,700 /mo", "listingType": "RENT", "propertyType": "Condominium", "propertyTypeCode": "CONDO", "beds": 3, "baths": 2, "sqft": 969.0, "lat": 1.3354396305425, "lng": 103.74253471349, "url": "https://www.propertyguru.com.sg/listing/for-rent-j-gateway-500057993", "image": null}, {"id": "20081899", "title": "Varsity Park Condominium", "address": "34 West Coast Road", "price": 6600, "pricePretty": "S$ 6,600 /mo", "listingType": "RENT", "propertyType": "Condominium", "propertyTypeCode": "CONDO", "beds": 3, "baths": 2, "sqft": 1280.0, "lat": 1.29442, "lng": 103.7684, "url": "https://www.propertyguru.com.sg/listing/for-rent-varsity-park-condominium-20081899", "image": null}, {"id": "21784096", "title": "DUO Residences", "address": "1 Fraser Street", "price": 6500, "pricePretty": "S$ 6,500 /mo", "listingType": "RENT", "propertyType": "Apartment", "propertyTypeCode": "APT", "beds": 2, "baths": 2, "sqft": 936.0, "lat": 1.2990433098484, "lng": 103.85802169577, "url": "https://www.propertyguru.com.sg/listing/for-rent-duo-residences-21784096", "image": null}, {"id": "21762984", "title": "One Devonshire", "address": "1 Devonshire Road", "price": 6500, "pricePretty": "S$ 6,500 /mo", "listingType": "RENT", "propertyType": "Condominium", "propertyTypeCode": "CONDO", "beds": 2, "baths": 2, "sqft": 904.0, "lat": 1.298958, "lng": 103.837122, "url": "https://www.propertyguru.com.sg/listing/for-rent-one-devonshire-21762984", "image": null}, {"id": "60137915", "title": "The Landmark", "address": "173 Chin Swee Road", "price": 6500, "pricePretty": "S$ 6,500 /mo", "listingType": "RENT", "propertyType": "Condominium", "propertyTypeCode": "CONDO", "beds": 2, "baths": 2, "sqft": 753.0, "lat": 1.286082, "lng": 103.83958, "url": "https://www.propertyguru.com.sg/listing/for-rent-the-landmark-60137915", "image": null}, {"id": "24327023", "title": "Parc Esta", "address": "822 Sims Avenue", "price": 6500, "pricePretty": "S$ 6,500 /mo", "listingType": "RENT", "propertyType": "Condominium", "propertyTypeCode": "CONDO", "beds": 3, "baths": 2, "sqft": 915.0, "lat": 1.318453, "lng": 103.902545, "url": "https://www.propertyguru.com.sg/listing/for-rent-parc-esta-24327023", "image": null}, {"id": "500034996", "title": "Lentor Modern", "address": "Lentor Central", "price": 6500, "pricePretty": "S$ 6,500 /mo", "listingType": "RENT", "propertyType": "Condominium", "propertyTypeCode": "CONDO", "beds": 3, "baths": 3, "sqft": 1109.0, "lat": 1.38568, "lng": 103.83465, "url": "https://www.propertyguru.com.sg/listing/for-rent-lentor-modern-500034996", "image": null}, {"id": "25192185", "title": "Queens", "address": "16 Stirling Road", "price": 6500, "pricePretty": "S$ 6,500 /mo", "listingType": "RENT", "propertyType": "Condominium", "propertyTypeCode": "CONDO", "beds": 3, "baths": 3, "sqft": 1194.0, "lat": 1.292918, "lng": 103.806493, "url": "https://www.propertyguru.com.sg/listing/for-rent-queens-25192185", "image": null}, {"id": "60222933", "title": "The Laurels @ Cairnhill Road", "address": "38 Cairnhill Road", "price": 6500, "pricePretty": "S$ 6,500 /mo", "listingType": "RENT", "propertyType": "Condominium", "propertyTypeCode": "CONDO", "beds": 2, "baths": 2, "sqft": 883.0, "lat": 1.304771, "lng": 103.837943, "url": "https://www.propertyguru.com.sg/listing/for-rent-the-laurels-cairnhill-road-60222933", "image": null}, {"id": "60173974", "title": "Piccadilly Grand", "address": "Northumberland Road", "price": 6500, "pricePretty": "S$ 6,500 /mo", "listingType": "RENT", "propertyType": "Condominium", "propertyTypeCode": "CONDO", "beds": 3, "baths": 3, "sqft": 1076.0, "lat": 1.31141, "lng": 103.85246, "url": "https://www.propertyguru.com.sg/listing/for-rent-piccadilly-grand-60173974", "image": null}, {"id": "500042308", "title": "The Laurels @ Cairnhill Road", "address": "38 Cairnhill Road", "price": 6500, "pricePretty": "S$ 6,500 /mo", "listingType": "RENT", "propertyType": "Condominium", "propertyTypeCode": "CONDO", "beds": 2, "baths": 2, "sqft": 883.0, "lat": 1.304771, "lng": 103.837943, "url": "https://www.propertyguru.com.sg/listing/for-rent-the-laurels-cairnhill-road-500042308", "image": null}, {"id": "500025335", "title": "Sky Eden @ Bedok", "address": "1 Bedok Central", "price": 6400, "pricePretty": "S$ 6,400 /mo", "listingType": "RENT", "propertyType": "Condominium", "propertyTypeCode": "CONDO", "beds": 3, "baths": 3, "sqft": 1087.0, "lat": 1.32494, "lng": 103.93236, "url": "https://www.propertyguru.com.sg/listing/for-rent-sky-eden-bedok-500025335", "image": null}, {"id": "500017333", "title": "Lentor Modern", "address": "7 Lentor Central", "price": 6400, "pricePretty": "S$ 6,400 /mo", "listingType": "RENT", "propertyType": "Condominium", "propertyTypeCode": "CONDO", "beds": 3, "baths": 2, "sqft": 1109.0, "lat": 1.38573, "lng": 103.8345823, "url": "https://www.propertyguru.com.sg/listing/for-rent-lentor-modern-500017333", "image": null}, {"id": "21221551", "title": "Commonwealth Towers", "address": "230 Commonwealth Avenue", "price": 6300, "pricePretty": "S$ 6,300 /mo", "listingType": "RENT", "propertyType": "Condominium", "propertyTypeCode": "CONDO", "beds": 3, "baths": 2, "sqft": 904.0, "lat": 1.2964032144763, "lng": 103.80535585872, "url": "https://www.propertyguru.com.sg/listing/for-rent-commonwealth-towers-21221551", "image": null}, {"id": "500045534", "title": "Piccadilly Grand", "address": "Northumberland Road", "price": 6300, "pricePretty": "S$ 6,300 /mo", "listingType": "RENT", "propertyType": "Condominium", "propertyTypeCode": "CONDO", "beds": 3, "baths": 2, "sqft": 883.0, "lat": 1.31141, "lng": 103.85246, "url": "https://www.propertyguru.com.sg/listing/for-rent-piccadilly-grand-500045534", "image": null}, {"id": "500056562", "title": "Signature at Lewis", "address": "1 Lewis Road", "price": 6200, "pricePretty": "S$ 6,200 /mo", "listingType": "RENT", "propertyType": "Condominium", "propertyTypeCode": "CONDO", "beds": 2, "baths": 2, "sqft": 980.0, "lat": 1.320941, "lng": 103.823316, "url": "https://www.propertyguru.com.sg/listing/for-rent-signature-at-lewis-500056562", "image": null}, {"id": "60228971", "title": "Tembusu Grand", "address": "94 Jalan Tembusu", "price": 6200, "pricePretty": "S$ 6,200 /mo", "listingType": "RENT", "propertyType": "Condominium", "propertyTypeCode": "CONDO", "beds": 3, "baths": 2, "sqft": 990.0, "lat": 1.3047857709265736, "lng": 103.8965626423245, "url": "https://www.propertyguru.com.sg/listing/for-rent-tembusu-grand-60228971", "image": null}, {"id": "25417041", "title": "Parc Esta", "address": "906 Sims Avenue", "price": 6200, "pricePretty": "S$ 6,200 /mo", "listingType": "RENT", "propertyType": "Condominium", "propertyTypeCode": "CONDO", "beds": 3, "baths": 2, "sqft": 926.0, "lat": 1.31777, "lng": 103.90358, "url": "https://www.propertyguru.com.sg/listing/for-rent-parc-esta-25417041", "image": null}, {"id": "500007109", "title": "Lentor Modern", "address": "3 Lentor Central", "price": 6200, "pricePretty": "S$ 6,200 /mo", "listingType": "RENT", "propertyType": "Condominium", "propertyTypeCode": "CONDO", "beds": 3, "baths": 3, "sqft": 1109.0, "lat": 1.3851802532855098, "lng": 103.83500322755955, "url": "https://www.propertyguru.com.sg/listing/for-rent-lentor-modern-500007109", "image": null}, {"id": "21212780", "title": "Caspian", "address": "52 Lakeside Drive", "price": 6200, "pricePretty": "S$ 6,200 /mo", "listingType": "RENT", "propertyType": "Condominium", "propertyTypeCode": "CONDO", "beds": 3, "baths": 2, "sqft": 1196.0, "lat": 1.3427282, "lng": 103.7203004, "url": "https://www.propertyguru.com.sg/listing/for-rent-caspian-21212780", "image": null}, {"id": "23312951", "title": "Luma", "address": "6 River Valley Grove", "price": 6200, "pricePretty": "S$ 6,200 /mo", "listingType": "RENT", "propertyType": "Condominium", "propertyTypeCode": "CONDO", "beds": 2, "baths": 2, "sqft": 1173.0, "lat": 1.296659, "lng": 103.834597, "url": "https://www.propertyguru.com.sg/listing/for-rent-luma-23312951", "image": null}, {"id": "19066115", "title": "Goldenhill Park Condo", "address": "70 Mei Hwan Drive", "price": 6100, "pricePretty": "S$ 6,100 /mo", "listingType": "RENT", "propertyType": "Condominium", "propertyTypeCode": "CONDO", "beds": 3, "baths": 3, "sqft": 1313.0, "lat": 1.353099, "lng": 103.8627, "url": "https://www.propertyguru.com.sg/listing/for-rent-goldenhill-park-condo-19066115", "image": null}, {"id": "23212869", "title": "Cairnhill Nine", "address": "9 Cairnhill Road", "price": 6000, "pricePretty": "S$ 6,000 /mo", "listingType": "RENT", "propertyType": "Condominium", "propertyTypeCode": "CONDO", "beds": 1, "baths": 1, "sqft": 603.0, "lat": 1.3043491, "lng": 103.8373378, "url": "https://www.propertyguru.com.sg/listing/for-rent-cairnhill-nine-23212869", "image": null}, {"id": "60137910", "title": "The Landmark", "address": "173 Chin Swee Road", "price": 6000, "pricePretty": "S$ 6,000 /mo", "listingType": "RENT", "propertyType": "Condominium", "propertyTypeCode": "CONDO", "beds": 2, "baths": 2, "sqft": 678.0, "lat": 1.286082, "lng": 103.83958, "url": "https://www.propertyguru.com.sg/listing/for-rent-the-landmark-60137910", "image": null}, {"id": "60151585", "title": "One Bernam", "address": "1 Bernam Street", "price": 6000, "pricePretty": "S$ 6,000 /mo", "listingType": "RENT", "propertyType": "Condominium", "propertyTypeCode": "CONDO", "beds": 2, "baths": 2, "sqft": 829.0, "lat": 1.2735245732721454, "lng": 103.84365640636763, "url": "https://www.propertyguru.com.sg/listing/for-rent-one-bernam-60151585", "image": null}, {"id": "60206211", "title": "AMO Residence", "address": "21 Ang Mo Kio Rise", "price": 6000, "pricePretty": "S$ 6,000 /mo", "listingType": "RENT", "propertyType": "Condominium", "propertyTypeCode": "CONDO", "beds": 3, "baths": 3, "sqft": 1141.0, "lat": 1.36894, "lng": 103.83291, "url": "https://www.propertyguru.com.sg/listing/for-rent-amo-residence-60206211", "image": null}, {"id": "60099285", "title": "One Bernam", "address": "1 Bernam Street", "price": 6000, "pricePretty": "S$ 6,000 /mo", "listingType": "RENT", "propertyType": "Condominium", "propertyTypeCode": "CONDO", "beds": 2, "baths": 2, "sqft": 829.0, "lat": 1.2735245732721454, "lng": 103.84365640636763, "url": "https://www.propertyguru.com.sg/listing/for-rent-one-bernam-60099285", "image": null}, {"id": "500024954", "title": "North Park Residences", "address": "15 Yishun Central 1", "price": 6000, "pricePretty": "S$ 6,000 /mo", "listingType": "RENT", "propertyType": "Condominium", "propertyTypeCode": "CONDO", "beds": 3, "baths": 2, "sqft": 1001.0, "lat": 1.4272428250802192, "lng": 103.8361044886078, "url": "https://www.propertyguru.com.sg/listing/for-rent-north-park-residences-500024954", "image": null}, {"id": "60220278", "title": "AMO Residence", "address": "23 Ang Mo Kio Rise", "price": 6000, "pricePretty": "S$ 6,000 /mo", "listingType": "RENT", "propertyType": "Condominium", "propertyTypeCode": "CONDO", "beds": 3, "baths": 2, "sqft": 1044.0, "lat": 1.36894, "lng": 103.83291, "url": "https://www.propertyguru.com.sg/listing/for-rent-amo-residence-60220278", "image": null}, {"id": "60232397", "title": "Corals at Keppel Bay", "address": "", "price": 5999, "pricePretty": "S$ 5,999 /mo", "listingType": "RENT", "propertyType": "Condominium", "propertyTypeCode": "CONDO", "beds": 2, "baths": 2, "sqft": 893.0, "lat": 1.264312170293, "lng": 103.8157582283, "url": "https://www.propertyguru.com.sg/listing/for-rent-corals-at-keppel-bay-60232397", "image": null}, {"id": "24151761", "title": "Parc Esta", "address": "822 Sims Avenue", "price": 5900, "pricePretty": "S$ 5,900 /mo", "listingType": "RENT", "propertyType": "Condominium", "propertyTypeCode": "CONDO", "beds": 3, "baths": 2, "sqft": 926.0, "lat": 1.318453, "lng": 103.902545, "url": "https://www.propertyguru.com.sg/listing/for-rent-parc-esta-24151761", "image": null}, {"id": "60217984", "title": "Perfect Ten", "address": "323 Bukit Timah Road", "price": 5900, "pricePretty": "S$ 5,900 /mo", "listingType": "RENT", "propertyType": "Condominium", "propertyTypeCode": "CONDO", "beds": 2, "baths": 2, "sqft": 786.0, "lat": 1.31722, "lng": 103.83248, "url": "https://www.propertyguru.com.sg/listing/for-rent-perfect-ten-60217984", "image": null}, {"id": "500014934", "title": "One Bernam", "address": "1 Bernam Street", "price": 5900, "pricePretty": "S$ 5,900 /mo", "listingType": "RENT", "propertyType": "Condominium", "propertyTypeCode": "CONDO", "beds": 2, "baths": 2, "sqft": 829.0, "lat": 1.2735245732721454, "lng": 103.84365640636763, "url": "https://www.propertyguru.com.sg/listing/for-rent-one-bernam-500014934", "image": null}, {"id": "500036336", "title": "Lentor Modern", "address": "Lentor Central", "price": 5800, "pricePretty": "S$ 5,800 /mo", "listingType": "RENT", "propertyType": "Condominium", "propertyTypeCode": "CONDO", "beds": 3, "baths": 3, "sqft": 969.0, "lat": 1.38568, "lng": 103.83465, "url": "https://www.propertyguru.com.sg/listing/for-rent-lentor-modern-500036336", "image": null}, {"id": "60186358", "title": "One Bernam", "address": "1 Bernam Street", "price": 5800, "pricePretty": "S$ 5,800 /mo", "listingType": "RENT", "propertyType": "Condominium", "propertyTypeCode": "CONDO", "beds": 2, "baths": 2, "sqft": 807.0, "lat": 1.2735245732721454, "lng": 103.84365640636763, "url": "https://www.propertyguru.com.sg/listing/for-rent-one-bernam-60186358", "image": null}, {"id": "500017477", "title": "Lentor Modern", "address": "7 Lentor Central", "price": 5800, "pricePretty": "S$ 5,800 /mo", "listingType": "RENT", "propertyType": "Condominium", "propertyTypeCode": "CONDO", "beds": 3, "baths": 2, "sqft": 990.0, "lat": 1.38573, "lng": 103.8345823, "url": "https://www.propertyguru.com.sg/listing/for-rent-lentor-modern-500017477", "image": null}, {"id": "500057062", "title": "Normanton Park", "address": "47 Normanton Park", "price": 5800, "pricePretty": "S$ 5,800 /mo", "listingType": "RENT", "propertyType": "Condominium", "propertyTypeCode": "CONDO", "beds": 3, "baths": 2, "sqft": 969.0, "lat": 1.28678, "lng": 103.792307, "url": "https://www.propertyguru.com.sg/listing/for-rent-normanton-park-500057062", "image": null}, {"id": "500046991", "title": "Vista Residences", "address": "28 Jalan Datoh", "price": 5700, "pricePretty": "S$ 5,700 /mo", "listingType": "RENT", "propertyType": "Condominium", "propertyTypeCode": "CONDO", "beds": 3, "baths": 3, "sqft": 1173.0, "lat": 1.327249, "lng": 103.843424, "url": "https://www.propertyguru.com.sg/listing/for-rent-vista-residences-500046991", "image": null}, {"id": "60203046", "title": "AMO Residence", "address": "21 Ang Mo Kio Rise", "price": 5700, "pricePretty": "S$ 5,700 /mo", "listingType": "RENT", "propertyType": "Condominium", "propertyTypeCode": "CONDO", "beds": 3, "baths": 2, "sqft": 958.0, "lat": 1.36894, "lng": 103.83291, "url": "https://www.propertyguru.com.sg/listing/for-rent-amo-residence-60203046", "image": null}, {"id": "500023492", "title": "One Bernam", "address": "1 Bernam Street", "price": 5550, "pricePretty": "S$ 5,550 /mo", "listingType": "RENT", "propertyType": "Condominium", "propertyTypeCode": "CONDO", "beds": 2, "baths": 2, "sqft": 807.0, "lat": 1.2735245732721454, "lng": 103.84365640636763, "url": "https://www.propertyguru.com.sg/listing/for-rent-one-bernam-500023492", "image": null}, {"id": "22019938", "title": "River Place", "address": "60 Havelock Road", "price": 5500, "pricePretty": "S$ 5,500 /mo", "listingType": "RENT", "propertyType": "Condominium", "propertyTypeCode": "CONDO", "beds": 2, "baths": 2, "sqft": 1033.0, "lat": 1.2893, "lng": 103.840977, "url": "https://www.propertyguru.com.sg/listing/for-rent-river-place-22019938", "image": null}, {"id": "60232993", "title": "Modena", "address": "35 Simei Street 4", "price": 5500, "pricePretty": "S$ 5,500 /mo", "listingType": "RENT", "propertyType": "Condominium", "propertyTypeCode": "CONDO", "beds": 4, "baths": 4, "sqft": 1647.0, "lat": 1.342634, "lng": 103.954975, "url": "https://www.propertyguru.com.sg/listing/for-rent-modena-60232993", "image": null}, {"id": "500037140", "title": "150 Mei Ling Street", "address": "150 Mei Ling Street", "price": 5500, "pricePretty": "S$ 5,500 /mo", "listingType": "RENT", "propertyType": "HDB Flat", "propertyTypeCode": "HDB", "beds": 4, "baths": 2, "sqft": 1614.0, "lat": 1.294931516, "lng": 103.8038371, "url": "https://www.propertyguru.com.sg/listing/hdb-for-rent-150-mei-ling-street-500037140", "image": null}, {"id": "24963074", "title": "Marina One Residences", "address": "23 Marina Way", "price": 5500, "pricePretty": "S$ 5,500 /mo", "listingType": "RENT", "propertyType": "Condominium", "propertyTypeCode": "CONDO", "beds": 1, "baths": 1, "sqft": 712.0, "lat": 1.2769395386728, "lng": 103.85364647079, "url": "https://www.propertyguru.com.sg/listing/for-rent-marina-one-residences-24963074", "image": null}, {"id": "24726382", "title": "Marina One Residences", "address": "21 Marina Way", "price": 5500, "pricePretty": "S$ 5,500 /mo", "listingType": "RENT", "propertyType": "Condominium", "propertyTypeCode": "CONDO", "beds": 1, "baths": 1, "sqft": 667.0, "lat": 1.2772971656733, "lng": 103.85331021321, "url": "https://www.propertyguru.com.sg/listing/for-rent-marina-one-residences-24726382", "image": null}, {"id": "500051359", "title": "One Bernam", "address": "1 Bernam Street", "price": 5300, "pricePretty": "S$ 5,300 /mo", "listingType": "RENT", "propertyType": "Condominium", "propertyTypeCode": "CONDO", "beds": 2, "baths": 1, "sqft": 700.0, "lat": 1.2735245732721454, "lng": 103.84365640636763, "url": "https://www.propertyguru.com.sg/listing/for-rent-one-bernam-500051359", "image": null}, {"id": "18516500", "title": "The Boutiq @ Killiney", "address": "145 Killiney Road", "price": 5300, "pricePretty": "S$ 5,300 /mo", "listingType": "RENT", "propertyType": "Condominium", "propertyTypeCode": "CONDO", "beds": 2, "baths": 2, "sqft": 1088.0, "lat": 1.29659, "lng": 103.83873, "url": "https://www.propertyguru.com.sg/listing/for-rent-the-boutiq-killiney-18516500", "image": null}, {"id": "25332159", "title": "336 River Valley", "address": "336 River Valley Road", "price": 5300, "pricePretty": "S$ 5,300 /mo", "listingType": "RENT", "propertyType": "Apartment", "propertyTypeCode": "APT", "beds": 3, "baths": 2, "sqft": 1582.0, "lat": 1.296178, "lng": 103.838558, "url": "https://www.propertyguru.com.sg/listing/for-rent-336-river-valley-25332159", "image": null}, {"id": "24700695", "title": "Wilshire Residences", "address": "30 Farrer Road", "price": 5300, "pricePretty": "S$ 5,300 /mo", "listingType": "RENT", "propertyType": "Condominium", "propertyTypeCode": "CONDO", "beds": 2, "baths": 2, "sqft": 797.0, "lat": 1.31286, "lng": 103.804729, "url": "https://www.propertyguru.com.sg/listing/for-rent-wilshire-residences-24700695", "image": null}, {"id": "60195135", "title": "The Landmark", "address": "173 Chin Swee Road", "price": 5200, "pricePretty": "S$ 5,200 /mo", "listingType": "RENT", "propertyType": "Condominium", "propertyTypeCode": "CONDO", "beds": 2, "baths": 2, "sqft": 753.0, "lat": 1.286082, "lng": 103.83958, "url": "https://www.propertyguru.com.sg/listing/for-rent-the-landmark-60195135", "image": null}, {"id": "500045468", "title": "The Hermitage", "address": "2 Sarkies Road", "price": 5200, "pricePretty": "S$ 5,200 /mo", "listingType": "RENT", "propertyType": "Apartment", "propertyTypeCode": "APT", "beds": 2, "baths": 2, "sqft": 818.0, "lat": 1.31462, "lng": 103.83673, "url": "https://www.propertyguru.com.sg/listing/for-rent-the-hermitage-500045468", "image": null}, {"id": "500054827", "title": "The Beacon", "address": "", "price": 5200, "pricePretty": "S$ 5,200 /mo", "listingType": "RENT", "propertyType": "Apartment", "propertyTypeCode": "APT", "beds": 2, "baths": 2, "sqft": 970.0, "lat": 1.275754, "lng": 103.84059, "url": "https://www.propertyguru.com.sg/listing/for-rent-the-beacon-500054827", "image": null}, {"id": "500036764", "title": "The Makena", "address": "121 Meyer Road", "price": 5100, "pricePretty": "S$ 5,100 /mo", "listingType": "RENT", "propertyType": "Condominium", "propertyTypeCode": "CONDO", "beds": 3, "baths": 2, "sqft": 1152.0, "lat": 1.29731, "lng": 103.89454, "url": "https://www.propertyguru.com.sg/listing/for-rent-the-makena-500036764", "image": null}, {"id": "60206732", "title": "Marine Blue", "address": "95 Marine Parade Road", "price": 5000, "pricePretty": "S$ 5,000 /mo", "listingType": "RENT", "propertyType": "Condominium", "propertyTypeCode": "CONDO", "beds": 1, "baths": 1, "sqft": 1270.0, "lat": 1.30369, "lng": 103.905158, "url": "https://www.propertyguru.com.sg/listing/for-rent-marine-blue-60206732", "image": null}, {"id": "24673975", "title": "The Peak @ Cairnhill II", "address": "61 Cairnhill Circle", "price": 5000, "pricePretty": "S$ 5,000 /mo", "listingType": "RENT", "propertyType": "Condominium", "propertyTypeCode": "CONDO", "beds": 2, "baths": 2, "sqft": 904.0, "lat": 1.308003, "lng": 103.837991, "url": "https://www.propertyguru.com.sg/listing/for-rent-the-peak-cairnhill-ii-24673975", "image": null}, {"id": "60196520", "title": "The Landmark", "address": "173 Chin Swee Road", "price": 5000, "pricePretty": "S$ 5,000 /mo", "listingType": "RENT", "propertyType": "Condominium", "propertyTypeCode": "CONDO", "beds": 2, "baths": 2, "sqft": 678.0, "lat": 1.286082, "lng": 103.83958, "url": "https://www.propertyguru.com.sg/listing/for-rent-the-landmark-60196520", "image": null}, {"id": "60196545", "title": "The Landmark", "address": "173 Chin Swee Road", "price": 5000, "pricePretty": "S$ 5,000 /mo", "listingType": "RENT", "propertyType": "Condominium", "propertyTypeCode": "CONDO", "beds": 2, "baths": 2, "sqft": 753.0, "lat": 1.286082, "lng": 103.83958, "url": "https://www.propertyguru.com.sg/listing/for-rent-the-landmark-60196545", "image": null}, {"id": "500052856", "title": "651 Pasir Ris Drive 10", "address": "651 Pasir Ris Drive 10", "price": 5000, "pricePretty": "S$ 5,000 /mo", "listingType": "RENT", "propertyType": "HDB Flat", "propertyTypeCode": "HDB", "beds": 4, "baths": 2, "sqft": 1539.0, "lat": 1.379074131, "lng": 103.9381476, "url": "https://www.propertyguru.com.sg/listing/hdb-for-rent-651-pasir-ris-drive-10-500052856", "image": null}, {"id": "500048417", "title": "Tenet", "address": "650 Tampines St 62", "price": 5000, "pricePretty": "S$ 5,000 /mo", "listingType": "RENT", "propertyType": "Executive Condominium", "propertyTypeCode": "EXCON", "beds": 3, "baths": 3, "sqft": 926.0, "lat": 1.36834, "lng": 103.94252, "url": "https://www.propertyguru.com.sg/listing/for-rent-tenet-500048417", "image": null}, {"id": "21546135", "title": "Pinnacle @ Duxton", "address": "1 Cantonment Road", "price": 5000, "pricePretty": "S$ 5,000 /mo", "listingType": "RENT", "propertyType": "HDB Flat", "propertyTypeCode": "HDB", "beds": 3, "baths": 2, "sqft": 1001.0, "lat": 1.275503, "lng": 103.841406, "url": "https://www.propertyguru.com.sg/listing/hdb-for-rent-pinnacle-duxton-21546135", "image": null}, {"id": "500013697", "title": "One Bernam", "address": "1 Bernam Street", "price": 4999, "pricePretty": "S$ 4,999 /mo", "listingType": "RENT", "propertyType": "Condominium", "propertyTypeCode": "CONDO", "beds": 2, "baths": 1, "sqft": 700.0, "lat": 1.2735245732721454, "lng": 103.84365640636763, "url": "https://www.propertyguru.com.sg/listing/for-rent-one-bernam-500013697", "image": null}, {"id": "25316186", "title": "Verticus", "address": "3 Jalan Kemaman", "price": 4999, "pricePretty": "S$ 4,999 /mo", "listingType": "RENT", "propertyType": "Condominium", "propertyTypeCode": "CONDO", "beds": 3, "baths": 2, "sqft": 936.0, "lat": 1.3263521330541888, "lng": 103.8506455549149, "url": "https://www.propertyguru.com.sg/listing/for-rent-verticus-25316186", "image": null}, {"id": "60231365", "title": "143 Lorong 2 Toa Payoh", "address": "143 Lorong 2 Toa Payoh", "price": 4999, "pricePretty": "S$ 4,999 /mo", "listingType": "RENT", "propertyType": "HDB Flat", "propertyTypeCode": "HDB", "beds": 3, "baths": 2, "sqft": 111.0, "lat": 1.33581496, "lng": 103.843735, "url": "https://www.propertyguru.com.sg/listing/hdb-for-rent-143-lorong-2-toa-payoh-60231365", "image": null}, {"id": "60182950", "title": "One Bernam", "address": "1 Bernam Street", "price": 4988, "pricePretty": "S$ 4,988 /mo", "listingType": "RENT", "propertyType": "Condominium", "propertyTypeCode": "CONDO", "beds": 2, "baths": 1, "sqft": 732.0, "lat": 1.2735245732721454, "lng": 103.84365640636763, "url": "https://www.propertyguru.com.sg/listing/for-rent-one-bernam-60182950", "image": null}, {"id": "500051857", "title": "50 Teban Gardens Road", "address": "50 Teban Gardens Road", "price": 4900, "pricePretty": "S$ 4,900 /mo", "listingType": "RENT", "propertyType": "HDB Flat", "propertyTypeCode": "HDB", "beds": 2, "baths": 2, "sqft": 1552.0, "lat": 1.320940094, "lng": 103.738164, "url": "https://www.propertyguru.com.sg/listing/hdb-for-rent-50-teban-gardens-road-500051857", "image": null}, {"id": "60225851", "title": "The Topiary", "address": "17 Fernvale Lane", "price": 4888, "pricePretty": "S$ 4,888 /mo", "listingType": "RENT", "propertyType": "Executive Condominium", "propertyTypeCode": "EXCON", "beds": 4, "baths": 3, "sqft": 1238.0, "lat": 1.3878776, "lng": 103.8722983, "url": "https://www.propertyguru.com.sg/listing/for-rent-the-topiary-60225851", "image": null}, {"id": "23758546", "title": "Principal Garden", "address": "93 Prince Charles Crescent", "price": 4800, "pricePretty": "S$ 4,800 /mo", "listingType": "RENT", "propertyType": "Condominium", "propertyTypeCode": "CONDO", "beds": 2, "baths": 2, "sqft": 764.0, "lat": 1.2931635050716603, "lng": 103.82180534605712, "url": "https://www.propertyguru.com.sg/listing/for-rent-principal-garden-23758546", "image": null}, {"id": "500030294", "title": "Tembusu Grand", "address": "94 Jalan Tembusu", "price": 4800, "pricePretty": "S$ 4,800 /mo", "listingType": "RENT", "propertyType": "Condominium", "propertyTypeCode": "CONDO", "beds": 2, "baths": 2, "sqft": 667.0, "lat": 1.3047857709265736, "lng": 103.8965626423245, "url": "https://www.propertyguru.com.sg/listing/for-rent-tembusu-grand-500030294", "image": null}, {"id": "23973130", "title": "Juniper Hill", "address": "39 Ewe Boon Road", "price": 4800, "pricePretty": "S$ 4,800 /mo", "listingType": "RENT", "propertyType": "Condominium", "propertyTypeCode": "CONDO", "beds": 2, "baths": 1, "sqft": 592.0, "lat": 1.31645, "lng": 103.82995, "url": "https://www.propertyguru.com.sg/listing/for-rent-juniper-hill-23973130", "image": null}, {"id": "25137518", "title": "Park Place Residences", "address": "2 Paya Lebar Road", "price": 4800, "pricePretty": "S$ 4,800 /mo", "listingType": "RENT", "propertyType": "Condominium", "propertyTypeCode": "CONDO", "beds": 2, "baths": 1, "sqft": 646.0, "lat": 1.3157819928144987, "lng": 103.89256229388235, "url": "https://www.propertyguru.com.sg/listing/for-rent-park-place-residences-25137518", "image": null}, {"id": "500053737", "title": "Symphony Suites", "address": "1 Yishun Close", "price": 4799, "pricePretty": "S$ 4,799 /mo", "listingType": "RENT", "propertyType": "Condominium", "propertyTypeCode": "CONDO", "beds": 4, "baths": 3, "sqft": 1023.0, "lat": 1.4348009018891899, "lng": 103.8448988012581, "url": "https://www.propertyguru.com.sg/listing/for-rent-symphony-suites-500053737", "image": null}, {"id": "60192083", "title": "The Arden", "address": "2 Phoenix Road", "price": 4788, "pricePretty": "S$ 4,788 /mo", "listingType": "RENT", "propertyType": "Condominium", "propertyTypeCode": "CONDO", "beds": 3, "baths": 2, "sqft": 1012.0, "lat": 1.37727, "lng": 103.75678, "url": "https://www.propertyguru.com.sg/listing/for-rent-the-arden-60192083", "image": null}, {"id": "1081880", "title": "Moonstone Residences", "address": "25 Moonstone Lane", "price": 4750, "pricePretty": "S$ 4,750 /mo", "listingType": "RENT", "propertyType": "Apartment", "propertyTypeCode": "APT", "beds": 3, "baths": 3, "sqft": 1238.0, "lat": 1.326982, "lng": 103.866208, "url": "https://www.propertyguru.com.sg/listing/for-rent-moonstone-residences-1081880", "image": null}, {"id": "20485612", "title": "10B Bedok South Avenue 2", "address": "10B Bedok South Avenue 2", "price": 4600, "pricePretty": "S$ 4,600 /mo", "listingType": "RENT", "propertyType": "HDB Flat", "propertyTypeCode": "HDB", "beds": 4, "baths": 2, "sqft": 1550.0, "lat": 1.32233955, "lng": 103.9361743, "url": "https://www.propertyguru.com.sg/listing/hdb-for-rent-10b-bedok-south-avenue-2-20485612", "image": null}, {"id": "24976259", "title": "The Rainforest", "address": "335 Choa Chu Kang Avenue 3", "price": 4600, "pricePretty": "S$ 4,600 /mo", "listingType": "RENT", "propertyType": "Executive Condominium", "propertyTypeCode": "EXCON", "beds": 3, "baths": 2, "sqft": 947.0, "lat": 1.3835601637105073, "lng": 103.74834194335986, "url": "https://www.propertyguru.com.sg/listing/for-rent-the-rainforest-24976259", "image": null}, {"id": "24845786", "title": "Woodsvale", "address": "1 Woodlands Drive 72", "price": 4600, "pricePretty": "S$ 4,600 /mo", "listingType": "RENT", "propertyType": "Condominium", "propertyTypeCode": "CONDO", "beds": 4, "baths": 3, "sqft": 1450.0, "lat": 1.443251, "lng": 103.805073, "url": "https://www.propertyguru.com.sg/listing/for-rent-woodsvale-24845786", "image": null}, {"id": "24031432", "title": "534 Pasir Ris Drive 1", "address": "534 Pasir Ris Drive 1", "price": 4500, "pricePretty": "S$ 4,500 /mo", "listingType": "RENT", "propertyType": "HDB Flat", "propertyTypeCode": "HDB", "beds": 3, "baths": 3, "sqft": 1550.0, "lat": 1.370280035, "lng": 103.9506858, "url": "https://www.propertyguru.com.sg/listing/hdb-for-rent-534-pasir-ris-drive-1-24031432", "image": null}, {"id": "60201746", "title": "Normanton Park", "address": "49 Normanton Park", "price": 4500, "pricePretty": "S$ 4,500 /mo", "listingType": "RENT", "propertyType": "Condominium", "propertyTypeCode": "CONDO", "beds": 2, "baths": 2, "sqft": 721.0, "lat": 1.28678, "lng": 103.792307, "url": "https://www.propertyguru.com.sg/listing/for-rent-normanton-park-60201746", "image": null}, {"id": "60195287", "title": "The Landmark", "address": "173 Chin Swee Road", "price": 4500, "pricePretty": "S$ 4,500 /mo", "listingType": "RENT", "propertyType": "Condominium", "propertyTypeCode": "CONDO", "beds": 1, "baths": 1, "sqft": 495.0, "lat": 1.286082, "lng": 103.83958, "url": "https://www.propertyguru.com.sg/listing/for-rent-the-landmark-60195287", "image": null}, {"id": "24333236", "title": "North Park Residences", "address": "17 Yishun Central 1", "price": 4500, "pricePretty": "S$ 4,500 /mo", "listingType": "RENT", "propertyType": "Condominium", "propertyTypeCode": "CONDO", "beds": 2, "baths": 2, "sqft": 732.0, "lat": 1.4275056, "lng": 103.8383039, "url": "https://www.propertyguru.com.sg/listing/for-rent-north-park-residences-24333236", "image": null}, {"id": "20775114", "title": "The Sorrento", "address": "55 West Coast Road", "price": 4500, "pricePretty": "S$ 4,500 /mo", "listingType": "RENT", "propertyType": "Condominium", "propertyTypeCode": "CONDO", "beds": 2, "baths": 2, "sqft": 1291.0, "lat": 1.296040145643, "lng": 103.76646995544, "url": "https://www.propertyguru.com.sg/listing/for-rent-the-sorrento-20775114", "image": null}, {"id": "500048449", "title": "7 Everton Park", "address": "7 Everton Park", "price": 4500, "pricePretty": "S$ 4,500 /mo", "listingType": "RENT", "propertyType": "HDB Flat", "propertyTypeCode": "HDB", "beds": 2, "baths": 2, "sqft": 925.0, "lat": 1.277061597, "lng": 103.8392283, "url": "https://www.propertyguru.com.sg/listing/hdb-for-rent-7-everton-park-500048449", "image": null}, {"id": "20151503", "title": "Seahill", "address": "121 West Coast Crescent", "price": 4500, "pricePretty": "S$ 4,500 /mo", "listingType": "RENT", "propertyType": "Condominium", "propertyTypeCode": "CONDO", "beds": 2, "baths": 2, "sqft": 786.0, "lat": 1.2978138, "lng": 103.7660084, "url": "https://www.propertyguru.com.sg/listing/for-rent-seahill-20151503", "image": null}, {"id": "60137901", "title": "The Landmark", "address": "173 Chin Swee Road", "price": 4400, "pricePretty": "S$ 4,400 /mo", "listingType": "RENT", "propertyType": "Condominium", "propertyTypeCode": "CONDO", "beds": 1, "baths": 1, "sqft": 495.0, "lat": 1.286082, "lng": 103.83958, "url": "https://www.propertyguru.com.sg/listing/for-rent-the-landmark-60137901", "image": null}, {"id": "60217018", "title": "Bellewaters", "address": "11 Anchorvale Crescent", "price": 4388, "pricePretty": "S$ 4,388 /mo", "listingType": "RENT", "propertyType": "Executive Condominium", "propertyTypeCode": "EXCON", "beds": 4, "baths": 2, "sqft": 924.0, "lat": 1.39903, "lng": 103.8906, "url": "https://www.propertyguru.com.sg/listing/for-rent-bellewaters-60217018", "image": null}, {"id": "60222983", "title": "Cairnhill Crest", "address": "2 Cairnhill Circle", "price": 4388, "pricePretty": "S$ 4,388 /mo", "listingType": "RENT", "propertyType": "Condominium", "propertyTypeCode": "CONDO", "beds": 1, "baths": 1, "sqft": 818.0, "lat": 1.304988, "lng": 103.838507, "url": "https://www.propertyguru.com.sg/listing/for-rent-cairnhill-crest-60222983", "image": null}, {"id": "500027627", "title": "Seaside Residences", "address": "10 Siglap Link", "price": 4314, "pricePretty": "S$ 4,314 /mo", "listingType": "RENT", "propertyType": "Apartment", "propertyTypeCode": "APT", "beds": null, "baths": 1, "sqft": 560.0, "lat": 1.30781, "lng": 103.9282, "url": "https://www.propertyguru.com.sg/listing/for-rent-seaside-residences-500027627", "image": null}, {"id": "500056716", "title": "Ballota Park Condo", "address": "152 Mariam Way", "price": 4300, "pricePretty": "S$ 4,300 /mo", "listingType": "RENT", "propertyType": "Condominium", "propertyTypeCode": "CONDO", "beds": 3, "baths": 3, "sqft": 1421.0, "lat": 1.358523, "lng": 103.968816, "url": "https://www.propertyguru.com.sg/listing/for-rent-ballota-park-condo-500056716", "image": null}, {"id": "21736655", "title": "Baywater", "address": "812 Bedok Reservoir Road", "price": 4300, "pricePretty": "S$ 4,300 /mo", "listingType": "RENT", "propertyType": "Condominium", "propertyTypeCode": "CONDO", "beds": 2, "baths": 3, "sqft": 1033.0, "lat": 1.337148, "lng": 103.932783, "url": "https://www.propertyguru.com.sg/listing/for-rent-baywater-21736655", "image": null}, {"id": "60198012", "title": "Domus", "address": "8 Irrawaddy Road", "price": 4300, "pricePretty": "S$ 4,300 /mo", "listingType": "RENT", "propertyType": "Condominium", "propertyTypeCode": "CONDO", "beds": 2, "baths": 2, "sqft": 904.0, "lat": 1.32523, "lng": 103.845597, "url": "https://www.propertyguru.com.sg/listing/for-rent-domus-60198012", "image": null}, {"id": "60193529", "title": "Lentor Modern", "address": "Lentor Central", "price": 4300, "pricePretty": "S$ 4,300 /mo", "listingType": "RENT", "propertyType": "Condominium", "propertyTypeCode": "CONDO", "beds": 2, "baths": 2, "sqft": 732.0, "lat": 1.38568, "lng": 103.83465, "url": "https://www.propertyguru.com.sg/listing/for-rent-lentor-modern-60193529", "image": null}, {"id": "500057214", "title": "The Woodleigh Residences", "address": "21 Bidadari Park Drive", "price": 4288, "pricePretty": "S$ 4,288 /mo", "listingType": "RENT", "propertyType": "Apartment", "propertyTypeCode": "APT", "beds": 2, "baths": 1, "sqft": 592.0, "lat": 1.3379962399899064, "lng": 103.87213489344579, "url": "https://www.propertyguru.com.sg/listing/for-rent-the-woodleigh-residences-500057214", "image": null}, {"id": "60190994", "title": "Lentor Modern", "address": "Lentor Central", "price": 4250, "pricePretty": "S$ 4,250 /mo", "listingType": "RENT", "propertyType": "Condominium", "propertyTypeCode": "CONDO", "beds": 2, "baths": 2, "sqft": 732.0, "lat": 1.38568, "lng": 103.83465, "url": "https://www.propertyguru.com.sg/listing/for-rent-lentor-modern-60190994", "image": null}, {"id": "500020131", "title": "Amaranda Gardens", "address": "116 Serangoon Avenue 3", "price": 4250, "pricePretty": "S$ 4,250 /mo", "listingType": "RENT", "propertyType": "Condominium", "propertyTypeCode": "CONDO", "beds": 3, "baths": 3, "sqft": 990.0, "lat": 1.349374, "lng": 103.866645, "url": "https://www.propertyguru.com.sg/listing/for-rent-amaranda-gardens-500020131", "image": null}, {"id": "500043012", "title": "The Creek @ Bukit", "address": "17 Toh Tuck Road", "price": 4200, "pricePretty": "S$ 4,200 /mo", "listingType": "RENT", "propertyType": "Condominium", "propertyTypeCode": "CONDO", "beds": 3, "baths": 2, "sqft": 936.0, "lat": 1.3396477908436282, "lng": 103.76987893448036, "url": "https://www.propertyguru.com.sg/listing/for-rent-the-creek-bukit-500043012", "image": null}, {"id": "500043433", "title": "Hundred Trees", "address": "85 West Coast Drive", "price": 4200, "pricePretty": "S$ 4,200 /mo", "listingType": "RENT", "propertyType": "Condominium", "propertyTypeCode": "CONDO", "beds": 2, "baths": 2, "sqft": 786.0, "lat": 1.314731, "lng": 103.758606, "url": "https://www.propertyguru.com.sg/listing/for-rent-hundred-trees-500043433", "image": null}, {"id": "24919421", "title": "Citylights", "address": "82 Jellicoe Road", "price": 4200, "pricePretty": "S$ 4,200 /mo", "listingType": "RENT", "propertyType": "Condominium", "propertyTypeCode": "CONDO", "beds": 1, "baths": 1, "sqft": 560.0, "lat": 1.308572, "lng": 103.863361, "url": "https://www.propertyguru.com.sg/listing/for-rent-citylights-24919421", "image": null}, {"id": "60189435", "title": "Lentor Modern", "address": "Lentor Central", "price": 4200, "pricePretty": "S$ 4,200 /mo", "listingType": "RENT", "propertyType": "Condominium", "propertyTypeCode": "CONDO", "beds": 2, "baths": 1, "sqft": 678.0, "lat": 1.38568, "lng": 103.83465, "url": "https://www.propertyguru.com.sg/listing/for-rent-lentor-modern-60189435", "image": null}, {"id": "500044896", "title": "Novena Regency", "address": "275 Thomson Road", "price": 4200, "pricePretty": "S$ 4,200 /mo", "listingType": "RENT", "propertyType": "Apartment", "propertyTypeCode": "APT", "beds": 2, "baths": 2, "sqft": 1109.0, "lat": 1.321203, "lng": 103.841615, "url": "https://www.propertyguru.com.sg/listing/for-rent-novena-regency-500044896", "image": null}, {"id": "500054253", "title": "Jervois Mansion", "address": "8 Jervois Close", "price": 4100, "pricePretty": "S$ 4,100 /mo", "listingType": "RENT", "propertyType": "Condominium", "propertyTypeCode": "CONDO", "beds": 1, "baths": 1, "sqft": 495.0, "lat": 1.293391, "lng": 103.8244688, "url": "https://www.propertyguru.com.sg/listing/for-rent-jervois-mansion-500054253", "image": null}, {"id": "500025870", "title": "Verticus", "address": "5 Jalan Kemaman", "price": 4100, "pricePretty": "S$ 4,100 /mo", "listingType": "RENT", "propertyType": "Condominium", "propertyTypeCode": "CONDO", "beds": 2, "baths": 1, "sqft": 635.0, "lat": 1.326569, "lng": 103.850844, "url": "https://www.propertyguru.com.sg/listing/for-rent-verticus-500025870", "image": null}, {"id": "500055512", "title": "54 & 56 Niven Road - 1+1 BR", "address": "Niven Road", "price": 4100, "pricePretty": "S$ 4,100 /mo", "listingType": "RENT", "propertyType": "Shophouse", "propertyTypeCode": "SHOPH", "beds": 2, "baths": null, "sqft": 435.0, "lat": 1.30363, "lng": 103.849648, "url": "https://www.propertyguru.com.sg/listing/for-rent-54-56-niven-road-1-1-br-500055512", "image": null}, {"id": "60207856", "title": "AMO Residence", "address": "21 Ang Mo Kio Rise", "price": 4000, "pricePretty": "S$ 4,000 /mo", "listingType": "RENT", "propertyType": "Condominium", "propertyTypeCode": "CONDO", "beds": 2, "baths": 1, "sqft": 614.0, "lat": 1.36894, "lng": 103.83291, "url": "https://www.propertyguru.com.sg/listing/for-rent-amo-residence-60207856", "image": null}, {"id": "500020978", "title": "Tembusu Grand", "address": "92 Jalan Tembusu", "price": 4000, "pricePretty": "S$ 4,000 /mo", "listingType": "RENT", "propertyType": "Condominium", "propertyTypeCode": "CONDO", "beds": 1, "baths": 1, "sqft": 527.0, "lat": 1.3047857709265736, "lng": 103.8965626423245, "url": "https://www.propertyguru.com.sg/listing/for-rent-tembusu-grand-500020978", "image": null}, {"id": "60215857", "title": "Tembusu Grand", "address": "94 Jalan Tembusu", "price": 4000, "pricePretty": "S$ 4,000 /mo", "listingType": "RENT", "propertyType": "Condominium", "propertyTypeCode": "CONDO", "beds": 1, "baths": 1, "sqft": 527.0, "lat": 1.3047857709265736, "lng": 103.8965626423245, "url": "https://www.propertyguru.com.sg/listing/for-rent-tembusu-grand-60215857", "image": null}, {"id": "24331686", "title": "439 Fajar Road", "address": "439 Fajar Road", "price": 4000, "pricePretty": "S$ 4,000 /mo", "listingType": "RENT", "propertyType": "HDB Flat", "propertyTypeCode": "HDB", "beds": 4, "baths": 2, "sqft": 1302.0, "lat": 1.382962873, "lng": 103.7705502, "url": "https://www.propertyguru.com.sg/listing/hdb-for-rent-439-fajar-road-24331686", "image": null}, {"id": "500042652", "title": "The Wisteria", "address": "590 Yishun Ring Road", "price": 4000, "pricePretty": "S$ 4,000 /mo", "listingType": "RENT", "propertyType": "Condominium", "propertyTypeCode": "CONDO", "beds": 3, "baths": 2, "sqft": 969.0, "lat": 1.4159755, "lng": 103.8395827, "url": "https://www.propertyguru.com.sg/listing/for-rent-the-wisteria-500042652", "image": null}, {"id": "500049630", "title": "Sims Urban Oasis", "address": "2 Sims Drive", "price": 4000, "pricePretty": "S$ 4,000 /mo", "listingType": "RENT", "propertyType": "Condominium", "propertyTypeCode": "CONDO", "beds": 2, "baths": 1, "sqft": 624.0, "lat": 1.3185512, "lng": 103.8809057, "url": "https://www.propertyguru.com.sg/listing/for-rent-sims-urban-oasis-500049630", "image": null}, {"id": "23573185", "title": "The Clement Canopy", "address": "16 Clementi Avenue 1", "price": 4000, "pricePretty": "S$ 4,000 /mo", "listingType": "RENT", "propertyType": "Condominium", "propertyTypeCode": "CONDO", "beds": 2, "baths": 1, "sqft": 635.0, "lat": 1.3072514, "lng": 103.7685886, "url": "https://www.propertyguru.com.sg/listing/for-rent-the-clement-canopy-23573185", "image": null}, {"id": "24726670", "title": "181 Bedok North Road", "address": "181 Bedok North Road", "price": 4000, "pricePretty": "S$ 4,000 /mo", "listingType": "RENT", "propertyType": "HDB Flat", "propertyTypeCode": "HDB", "beds": 3, "baths": 2, "sqft": 1184.0, "lat": 1.326518232, "lng": 103.9414662, "url": "https://www.propertyguru.com.sg/listing/hdb-for-rent-181-bedok-north-road-24726670", "image": null}, {"id": "500015341", "title": "76 Shenton", "address": "76 Shenton Way", "price": 4000, "pricePretty": "S$ 4,000 /mo", "listingType": "RENT", "propertyType": "Apartment", "propertyTypeCode": "APT", "beds": 1, "baths": 1, "sqft": 592.0, "lat": 1.273444, "lng": 103.845565, "url": "https://www.propertyguru.com.sg/listing/for-rent-76-shenton-500015341", "image": null}, {"id": "21400093", "title": "Dahlia Park Condo", "address": "1 Flora Drive", "price": 4000, "pricePretty": "S$ 4,000 /mo", "listingType": "RENT", "propertyType": "Condominium", "propertyTypeCode": "CONDO", "beds": 3, "baths": 3, "sqft": 1270.0, "lat": 1.358968, "lng": 103.965571, "url": "https://www.propertyguru.com.sg/listing/for-rent-dahlia-park-condo-21400093", "image": null}, {"id": "60226923", "title": "Tembusu Grand", "address": "94 Jalan Tembusu", "price": 4000, "pricePretty": "S$ 4,000 /mo", "listingType": "RENT", "propertyType": "Condominium", "propertyTypeCode": "CONDO", "beds": 1, "baths": 1, "sqft": 527.0, "lat": 1.3047857709265736, "lng": 103.8965626423245, "url": "https://www.propertyguru.com.sg/listing/for-rent-tembusu-grand-60226923", "image": null}, {"id": "60223470", "title": "953B Tampines Street 96", "address": "953B Tampines Street 96", "price": 4000, "pricePretty": "S$ 4,000 /mo", "listingType": "RENT", "propertyType": "HDB Flat", "propertyTypeCode": "HDB", "beds": 3, "baths": 2, "sqft": 1227.0, "lat": 1.3425748231364454, "lng": 103.9357790833205, "url": "https://www.propertyguru.com.sg/listing/hdb-for-rent-953b-tampines-street-96-60223470", "image": null}, {"id": "500044283", "title": "249 Pasir Ris Street 21", "address": "249 Pasir Ris Street 21", "price": 4000, "pricePretty": "S$ 4,000 /mo", "listingType": "RENT", "propertyType": "HDB Flat", "propertyTypeCode": "HDB", "beds": 4, "baths": 2, "sqft": 1604.0, "lat": 1.370234041, "lng": 103.963391, "url": "https://www.propertyguru.com.sg/listing/hdb-for-rent-249-pasir-ris-street-21-500044283", "image": null}, {"id": "500035015", "title": "Lentor Modern", "address": "Lentor Central", "price": 3999, "pricePretty": "S$ 3,999 /mo", "listingType": "RENT", "propertyType": "Condominium", "propertyTypeCode": "CONDO", "beds": 1, "baths": 1, "sqft": 527.0, "lat": 1.38568, "lng": 103.83465, "url": "https://www.propertyguru.com.sg/listing/for-rent-lentor-modern-500035015", "image": null}, {"id": "20937667", "title": "Sims Urban Oasis", "address": "2 Sims Drive", "price": 3999, "pricePretty": "S$ 3,999 /mo", "listingType": "RENT", "propertyType": "Condominium", "propertyTypeCode": "CONDO", "beds": 2, "baths": 1, "sqft": 624.0, "lat": 1.3185512, "lng": 103.8809057, "url": "https://www.propertyguru.com.sg/listing/for-rent-sims-urban-oasis-20937667", "image": null}, {"id": "500041164", "title": "788B Woodlands Crescent", "address": "788B Woodlands Crescent", "price": 3999, "pricePretty": "S$ 3,999 /mo", "listingType": "RENT", "propertyType": "HDB Flat", "propertyTypeCode": "HDB", "beds": 4, "baths": 2, "sqft": 1539.0, "lat": 1.443817117, "lng": 103.8011959, "url": "https://www.propertyguru.com.sg/listing/hdb-for-rent-788b-woodlands-crescent-500041164", "image": null}, {"id": "20877663", "title": "D'Nest", "address": "137 Pasir Ris Grove", "price": 3999, "pricePretty": "S$ 3,999 /mo", "listingType": "RENT", "propertyType": "Condominium", "propertyTypeCode": "CONDO", "beds": 3, "baths": 2, "sqft": 947.0, "lat": 1.3712889, "lng": 103.9450346, "url": "https://www.propertyguru.com.sg/listing/for-rent-d-nest-20877663", "image": null}, {"id": "60226795", "title": "Kopar At Newton", "address": "4 Makeway Avenue", "price": 3999, "pricePretty": "S$ 3,999 /mo", "listingType": "RENT", "propertyType": "Condominium", "propertyTypeCode": "CONDO", "beds": 1, "baths": 1, "sqft": 517.0, "lat": 1.3122009978809193, "lng": 103.84151497401146, "url": "https://www.propertyguru.com.sg/listing/for-rent-kopar-at-newton-60226795", "image": null}, {"id": "60196510", "title": "The Landmark", "address": "173 Chin Swee Road", "price": 3988, "pricePretty": "S$ 3,988 /mo", "listingType": "RENT", "propertyType": "Condominium", "propertyTypeCode": "CONDO", "beds": 1, "baths": 1, "sqft": 495.0, "lat": 1.286082, "lng": 103.83958, "url": "https://www.propertyguru.com.sg/listing/for-rent-the-landmark-60196510", "image": null}, {"id": "60117653", "title": "Waterview", "address": "91 Tampines Avenue 1", "price": 3900, "pricePretty": "S$ 3,900 /mo", "listingType": "RENT", "propertyType": "Condominium", "propertyTypeCode": "CONDO", "beds": 2, "baths": 2, "sqft": 786.0, "lat": 1.3489022, "lng": 103.9267252, "url": "https://www.propertyguru.com.sg/listing/for-rent-waterview-60117653", "image": null}, {"id": "60221480", "title": "432 Hougang Avenue 6", "address": "432 Hougang Avenue 6", "price": 3900, "pricePretty": "S$ 3,900 /mo", "listingType": "RENT", "propertyType": "HDB Flat", "propertyTypeCode": "HDB", "beds": 3, "baths": 3, "sqft": 1130.0, "lat": 1.376183328, "lng": 103.8931178, "url": "https://www.propertyguru.com.sg/listing/hdb-for-rent-432-hougang-avenue-6-60221480", "image": null}, {"id": "23744236", "title": "Kingsford Waterbay", "address": "68 Upper Serangoon View", "price": 3900, "pricePretty": "S$ 3,900 /mo", "listingType": "RENT", "propertyType": "Condominium", "propertyTypeCode": "CONDO", "beds": 2, "baths": 2, "sqft": 861.0, "lat": 1.3756826, "lng": 103.9037461, "url": "https://www.propertyguru.com.sg/listing/for-rent-kingsford-waterbay-23744236", "image": null}, {"id": "500037642", "title": "AMO Residence", "address": "21 Ang Mo Kio Rise", "price": 3900, "pricePretty": "S$ 3,900 /mo", "listingType": "RENT", "propertyType": "Condominium", "propertyTypeCode": "CONDO", "beds": 2, "baths": 1, "sqft": 614.0, "lat": 1.36894, "lng": 103.83291, "url": "https://www.propertyguru.com.sg/listing/for-rent-amo-residence-500037642", "image": null}, {"id": "20443825", "title": "201B Compassvale Drive", "address": "201B Compassvale Drive", "price": 3888, "pricePretty": "S$ 3,888 /mo", "listingType": "RENT", "propertyType": "HDB Flat", "propertyTypeCode": "HDB", "beds": 3, "baths": 2, "sqft": 1184.0, "lat": 1.388684173, "lng": 103.8934818, "url": "https://www.propertyguru.com.sg/listing/hdb-for-rent-201b-compassvale-drive-20443825", "image": null}, {"id": "500045174", "title": "The Tapestry", "address": "51 Tampines Street 86", "price": 3800, "pricePretty": "S$ 3,800 /mo", "listingType": "RENT", "propertyType": "Condominium", "propertyTypeCode": "CONDO", "beds": 2, "baths": 1, "sqft": 700.0, "lat": 1.353791, "lng": 103.928705, "url": "https://www.propertyguru.com.sg/listing/for-rent-the-tapestry-500045174", "image": null}, {"id": "60204082", "title": "61 Telok Blangah Heights", "address": "61 Telok Blangah Heights", "price": 3800, "pricePretty": "S$ 3,800 /mo", "listingType": "RENT", "propertyType": "HDB Flat", "propertyTypeCode": "HDB", "beds": 3, "baths": 2, "sqft": 872.0, "lat": 1.275768685, "lng": 103.8119423, "url": "https://www.propertyguru.com.sg/listing/hdb-for-rent-61-telok-blangah-heights-60204082", "image": null}, {"id": "500043190", "title": "The Glades", "address": "12 Bedok Rise", "price": 3800, "pricePretty": "S$ 3,800 /mo", "listingType": "RENT", "propertyType": "Condominium", "propertyTypeCode": "CONDO", "beds": null, "baths": 1, "sqft": 710.0, "lat": 1.32713, "lng": 103.94893, "url": "https://www.propertyguru.com.sg/listing/for-rent-the-glades-500043190", "image": null}, {"id": "60217201", "title": "406 Hougang Avenue 10", "address": "406 Hougang Avenue 10", "price": 3800, "pricePretty": "S$ 3,800 /mo", "listingType": "RENT", "propertyType": "HDB Flat", "propertyTypeCode": "HDB", "beds": 3, "baths": 2, "sqft": 1200.0, "lat": 1.373606754, "lng": 103.8961501, "url": "https://www.propertyguru.com.sg/listing/hdb-for-rent-406-hougang-avenue-10-60217201", "image": null}, {"id": "500052175", "title": "654 Senja Road", "address": "654 Senja Road", "price": 3800, "pricePretty": "S$ 3,800 /mo", "listingType": "RENT", "propertyType": "HDB Flat", "propertyTypeCode": "HDB", "beds": 3, "baths": 2, "sqft": 1410.0, "lat": 1.387665332, "lng": 103.7641561, "url": "https://www.propertyguru.com.sg/listing/hdb-for-rent-654-senja-road-500052175", "image": null}, {"id": "500047302", "title": "Suites 123", "address": "123 Rangoon Road", "price": 3800, "pricePretty": "S$ 3,800 /mo", "listingType": "RENT", "propertyType": "Apartment", "propertyTypeCode": "APT", "beds": 1, "baths": 1, "sqft": 581.0, "lat": 1.315124, "lng": 103.853499, "url": "https://www.propertyguru.com.sg/listing/for-rent-suites-123-500047302", "image": null}, {"id": "60204179", "title": "AMO Residence", "address": "21 Ang Mo Kio Rise", "price": 3800, "pricePretty": "S$ 3,800 /mo", "listingType": "RENT", "propertyType": "Condominium", "propertyTypeCode": "CONDO", "beds": 2, "baths": 1, "sqft": 678.0, "lat": 1.36894, "lng": 103.83291, "url": "https://www.propertyguru.com.sg/listing/for-rent-amo-residence-60204179", "image": null}, {"id": "60203051", "title": "AMO Residence", "address": "21 Ang Mo Kio Rise", "price": 3800, "pricePretty": "S$ 3,800 /mo", "listingType": "RENT", "propertyType": "Condominium", "propertyTypeCode": "CONDO", "beds": 2, "baths": 1, "sqft": 614.0, "lat": 1.36894, "lng": 103.83291, "url": "https://www.propertyguru.com.sg/listing/for-rent-amo-residence-60203051", "image": null}, {"id": "500040756", "title": "Sol Acres", "address": "10 Choa Chu Kang Grove", "price": 3800, "pricePretty": "S$ 3,800 /mo", "listingType": "RENT", "propertyType": "Executive Condominium", "propertyTypeCode": "EXCON", "beds": 2, "baths": 2, "sqft": 872.0, "lat": 1.3767339, "lng": 103.7504132, "url": "https://www.propertyguru.com.sg/listing/for-rent-sol-acres-500040756", "image": null}, {"id": "21007298", "title": "Forte Suites", "address": "88 Mergui Road", "price": 3800, "pricePretty": "S$ 3,800 /mo", "listingType": "RENT", "propertyType": "Condominium", "propertyTypeCode": "CONDO", "beds": 2, "baths": 2, "sqft": 604.0, "lat": 1.317626, "lng": 103.851754, "url": "https://www.propertyguru.com.sg/listing/for-rent-forte-suites-21007298", "image": null}, {"id": "22146743", "title": "Parc Emily", "address": "5 Mount Emily Road", "price": 3800, "pricePretty": "S$ 3,800 /mo", "listingType": "RENT", "propertyType": "Condominium", "propertyTypeCode": "CONDO", "beds": 1, "baths": 1, "sqft": 603.0, "lat": 1.3034969, "lng": 103.849144, "url": "https://www.propertyguru.com.sg/listing/for-rent-parc-emily-22146743", "image": null}, {"id": "21307147", "title": "625 Jurong West Street 61", "address": "625 Jurong West Street 61", "price": 3750, "pricePretty": "S$ 3,750 /mo", "listingType": "RENT", "propertyType": "HDB Flat", "propertyTypeCode": "HDB", "beds": 2, "baths": 2, "sqft": 1184.0, "lat": 1.341439059, "lng": 103.6989746, "url": "https://www.propertyguru.com.sg/listing/hdb-for-rent-625-jurong-west-street-61-21307147", "image": null}, {"id": "25424671", "title": "57 Havelock Road", "address": "57 Havelock Road", "price": 3700, "pricePretty": "S$ 3,700 /mo", "listingType": "RENT", "propertyType": "HDB Flat", "propertyTypeCode": "HDB", "beds": 2, "baths": 2, "sqft": 743.0, "lat": 1.290099, "lng": 103.828544, "url": "https://www.propertyguru.com.sg/listing/hdb-for-rent-57-havelock-road-25424671", "image": null}, {"id": "19319813", "title": "Eastern Lagoon II", "address": "200 Upper East Coast Road", "price": 3700, "pricePretty": "S$ 3,700 /mo", "listingType": "RENT", "propertyType": "Condominium", "propertyTypeCode": "CONDO", "beds": 2, "baths": 2, "sqft": 893.0, "lat": 1.31352, "lng": 103.93309, "url": "https://www.propertyguru.com.sg/listing/for-rent-eastern-lagoon-ii-19319813", "image": null}, {"id": "60218538", "title": "419 Pasir Ris Drive 6", "address": "419 Pasir Ris Drive 6", "price": 3700, "pricePretty": "S$ 3,700 /mo", "listingType": "RENT", "propertyType": "HDB Flat", "propertyTypeCode": "HDB", "beds": 4, "baths": 2, "sqft": 1324.0, "lat": 1.371725494, "lng": 103.9546812, "url": "https://www.propertyguru.com.sg/listing/hdb-for-rent-419-pasir-ris-drive-6-60218538", "image": null},